$GNRMC,060324.00,A,3548.11281,N,13940.65154,E,0.012,,101222,,,R,V*08
$GNVTG,,T,,M,0.012,N,0.022,K,D*3B
$GNGGA,060324.00,3548.11281,N,13940.65154,E,4,12,0.73,5.9,M,39.2,M,,0000*4A
$GNGSA,A,3,03,22,26,25,29,31,32,,,,,,1.24,0.73,1.01,1*0A
$GNGSA,A,3,76,75,67,65,66,77,,,,,,,1.24,0.73,1.01,2*00
$GNGSA,A,3,30,08,03,02,25,,,,,,,,1.24,0.73,1.01,3*0D
$GNGSA,A,3,25,23,32,06,09,16,,,,,,,1.24,0.73,1.01,4*08
$GPGSV,3,1,11,02,04,107,19,03,11,309,41,12,05,051,28,22,75,276,43,1*6C
$GPGSV,3,2,11,25,34,047,41,26,40,252,44,29,50,098,37,31,59,329,41,1*6E
$GPGSV,3,3,11,32,60,175,40,41,18,249,32,50,46,201,36,1*57
$GPGSV,2,1,07,03,11,309,36,12,05,051,17,25,34,047,34,26,40,252,38,6*65
$GPGSV,2,2,07,29,50,098,33,31,59,329,37,32,60,175,32,6*5C
$GLGSV,2,1,08,65,40,202,30,66,51,294,44,67,11,333,45,75,38,037,39,1*78
$GLGSV,2,2,08,76,50,311,46,77,14,270,29,84,10,029,26,,,,35,1*4A
$GLGSV,2,1,08,65,40,202,35,66,51,294,41,67,11,333,35,75,38,037,34,3*70
$GLGSV,2,2,08,76,50,311,41,77,14,270,34,84,10,029,24,85,25,088,27,3*78
$GLGSV,1,1,02,72,00,172,,86,11,132,,0*74
$GAGSV,2,1,06,02,69,283,38,03,60,183,37,07,06,322,32,08,54,299,39,2*75
$GAGSV,2,2,06,25,49,040,32,30,20,246,32,2*7F
$GAGSV,2,1,07,02,69,283,41,03,60,183,40,07,06,322,37,08,54,299,42,7*76
$GAGSV,2,2,07,10,05,062,25,25,49,040,41,30,20,246,40,7*4D
$GAGSV,1,1,01,12,00,039,,0*4C
$GBGSV,2,1,06,06,58,319,40,09,45,314,41,16,67,329,41,23,42,289,47,1*70
$GBGSV,2,2,06,25,65,018,44,32,29,302,43,1*71
$GBGSV,1,1,04,06,58,319,39,09,45,314,34,12,,,33,16,67,329,37,3*4A
$GNGLL,3548.11281,N,13940.65154,E,060324.00,A,D*7C
$GNRMC,060325.00,A,3548.11281,N,13940.65155,E,0.011,,101222,,,R,V*0B
$GNVTG,,T,,M,0.011,N,0.020,K,D*3A
$GNGGA,060325.00,3548.11281,N,13940.65155,E,4,12,0.73,5.9,M,39.2,M,,0000*4A
$GNGSA,A,3,03,22,26,25,29,31,32,,,,,,1.24,0.73,1.01,1*0A
$GNGSA,A,3,76,75,67,65,66,77,,,,,,,1.24,0.73,1.01,2*00
$GNGSA,A,3,30,08,03,02,25,,,,,,,,1.24,0.73,1.01,3*0D
$GNGSA,A,3,25,23,32,06,09,16,,,,,,,1.24,0.73,1.01,4*08
$GPGSV,3,1,11,02,04,107,18,03,11,309,41,12,05,051,28,22,75,276,43,1*6D
$GPGSV,3,2,11,25,34,047,41,26,40,252,44,29,50,098,38,31,59,329,41,1*61
$GPGSV,3,3,11,32,60,175,40,41,18,249,32,50,46,201,36,1*57
$GPGSV,2,1,07,03,11,309,36,12,05,051,18,25,34,047,34,26,40,252,38,6*6A
$GPGSV,2,2,07,29,50,098,33,31,59,329,37,32,60,175,32,6*5C
$GLGSV,2,1,08,65,40,202,30,66,51,294,44,67,11,333,45,75,38,037,39,1*78
$GLGSV,2,2,08,76,50,311,46,77,14,270,29,84,10,029,26,,,,35,1*4A
$GLGSV,2,1,08,65,40,202,34,66,51,294,41,67,11,333,35,75,38,037,34,3*71
$GLGSV,2,2,08,76,50,311,41,77,14,270,34,84,10,029,24,85,25,088,27,3*78
$GLGSV,1,1,02,72,00,172,,86,11,132,,0*74
$GAGSV,2,1,06,02,69,283,38,03,60,183,37,07,06,322,32,08,54,299,39,2*75
$GAGSV,2,2,06,25,49,040,32,30,20,246,32,2*7F
$GAGSV,2,1,07,02,69,283,41,03,60,183,40,07,06,322,37,08,54,299,42,7*76
$GAGSV,2,2,07,10,05,062,25,25,49,040,41,30,20,246,40,7*4D
$GAGSV,1,1,01,12,00,039,,0*4C
$GBGSV,2,1,06,06,58,319,40,09,45,314,41,16,67,329,41,23,42,289,47,1*70
$GBGSV,2,2,06,25,65,018,44,32,29,302,43,1*71
$GBGSV,1,1,04,06,58,319,39,09,45,314,34,12,,,33,16,67,329,37,3*4A
$GNGLL,3548.11281,N,13940.65155,E,060325.00,A,D*7C
$GNRMC,060326.00,A,3548.11281,N,13940.65155,E,0.014,,101222,,,R,V*0D
$GNVTG,,T,,M,0.014,N,0.027,K,D*38
$GNGGA,060326.00,3548.11281,N,13940.65155,E,4,12,0.73,5.9,M,39.2,M,,0000*49
$GNGSA,A,3,03,22,26,25,29,31,32,,,,,,1.24,0.73,1.01,1*0A
$GNGSA,A,3,76,75,67,65,66,77,,,,,,,1.24,0.73,1.01,2*00
$GNGSA,A,3,30,08,03,02,25,,,,,,,,1.24,0.73,1.01,3*0D
$GNGSA,A,3,25,23,32,06,09,16,,,,,,,1.24,0.73,1.01,4*08
$GPGSV,3,1,11,02,04,107,17,03,11,309,41,12,05,051,27,22,75,276,43,1*6D
$GPGSV,3,2,11,25,34,047,41,26,40,252,44,29,50,098,38,31,59,329,41,1*61
$GPGSV,3,3,11,32,60,175,40,41,18,249,32,50,46,201,36,1*57
$GPGSV,2,1,07,03,11,309,36,12,05,051,18,25,34,047,34,26,40,252,38,6*6A
$GPGSV,2,2,07,29,50,098,33,31,59,329,37,32,60,175,32,6*5C
$GLGSV,2,1,08,65,40,202,31,66,51,294,44,67,11,333,45,75,38,037,39,1*79
$GLGSV,2,2,08,76,50,311,46,77,14,270,29,84,10,029,25,,,,34,1*48
$GLGSV,2,1,08,65,40,202,35,66,51,294,41,67,11,333,35,75,38,037,34,3*70
$GLGSV,2,2,08,76,50,311,41,77,14,270,34,84,10,029,24,85,25,088,27,3*78
$GLGSV,1,1,02,72,00,172,,86,11,132,,0*74
$GAGSV,2,1,06,02,69,283,38,03,60,183,37,07,06,322,32,08,54,299,39,2*75
$GAGSV,2,2,06,25,49,040,32,30,20,246,32,2*7F
$GAGSV,2,1,07,02,69,283,41,03,60,183,40,07,06,322,36,08,54,299,42,7*77
$GAGSV,2,2,07,10,05,062,25,25,49,040,41,30,20,246,40,7*4D
$GAGSV,1,1,01,12,00,039,,0*4C
$GBGSV,2,1,06,06,58,319,40,09,45,314,41,16,67,329,41,23,42,289,47,1*70
$GBGSV,2,2,06,25,65,018,44,32,29,302,42,1*70
$GBGSV,1,1,04,06,58,319,39,09,45,314,33,12,,,33,16,67,329,37,3*4D
$GNGLL,3548.11281,N,13940.65155,E,060326.00,A,D*7F
$GNRMC,060327.00,A,3548.11281,N,13940.65155,E,0.010,,101222,,,R,V*08
$GNVTG,,T,,M,0.010,N,0.018,K,D*30
$GNGGA,060327.00,3548.11281,N,13940.65155,E,4,12,0.73,5.9,M,39.2,M,,0000*48
$GNGSA,A,3,03,22,26,25,29,31,32,,,,,,1.24,0.73,1.01,1*0A
$GNGSA,A,3,76,75,67,65,66,77,,,,,,,1.24,0.73,1.01,2*00
$GNGSA,A,3,30,08,03,02,25,,,,,,,,1.24,0.73,1.01,3*0D
$GNGSA,A,3,25,23,32,06,09,16,,,,,,,1.24,0.73,1.01,4*08
$GPGSV,3,1,11,02,04,107,18,03,11,309,41,12,05,051,27,22,75,276,43,1*62
$GPGSV,3,2,11,25,34,047,41,26,40,252,44,29,50,098,38,31,59,329,41,1*61
$GPGSV,3,3,11,32,60,175,40,41,18,249,32,50,46,201,36,1*57
$GPGSV,2,1,07,03,11,309,36,12,05,051,18,25,34,047,34,26,40,252,38,6*6A
$GPGSV,2,2,07,29,50,098,33,31,59,329,37,32,60,175,32,6*5C
$GLGSV,2,1,08,65,40,202,31,66,51,294,44,67,11,333,45,75,38,037,40,1*77
$GLGSV,2,2,08,76,50,311,46,77,14,270,29,84,10,029,26,,,,34,1*4B
$GLGSV,2,1,08,65,40,202,35,66,51,294,41,67,11,333,35,75,38,037,34,3*70
$GLGSV,2,2,08,76,50,311,41,77,14,270,34,84,10,029,24,85,25,088,26,3*79
$GLGSV,1,1,02,72,00,172,,86,11,132,,0*74
$GAGSV,2,1,06,02,69,283,38,03,60,183,37,07,06,322,32,08,54,299,39,2*75
$GAGSV,2,2,06,25,49,040,32,30,20,246,32,2*7F
$GAGSV,2,1,07,02,69,283,41,03,60,183,40,07,06,322,36,08,54,299,42,7*77
$GAGSV,2,2,07,10,05,062,25,25,49,040,41,30,20,246,40,7*4D
$GAGSV,1,1,01,12,00,039,,0*4C
$GBGSV,2,1,06,06,58,319,40,09,45,314,41,16,67,329,41,23,42,289,47,1*70
$GBGSV,2,2,06,25,65,018,44,32,29,302,43,1*71
$GBGSV,1,1,04,06,58,319,39,09,45,314,34,12,,,33,16,67,329,37,3*4A
$GNGLL,3548.11281,N,13940.65155,E,060327.00,A,D*7E
$GNRMC,060328.00,A,3548.11281,N,13940.65155,E,0.029,,101222,,,R,V*0D
$GNVTG,,T,,M,0.029,N,0.054,K,D*32
$GNGGA,060328.00,3548.11281,N,13940.65155,E,4,12,0.73,5.9,M,39.2,M,,0000*47
$GNGSA,A,3,03,22,26,25,29,31,32,,,,,,1.24,0.73,1.01,1*0A
$GNGSA,A,3,76,75,67,65,66,77,,,,,,,1.24,0.73,1.01,2*00
$GNGSA,A,3,30,08,03,02,25,,,,,,,,1.24,0.73,1.01,3*0D
$GNGSA,A,3,25,23,32,06,09,16,,,,,,,1.24,0.73,1.01,4*08
$GPGSV,3,1,11,02,04,107,20,03,11,309,41,12,05,051,27,22,75,276,43,1*69
$GPGSV,3,2,11,25,34,047,41,26,40,252,44,29,50,098,38,31,59,329,41,1*61
$GPGSV,3,3,11,32,60,175,40,41,18,249,32,50,46,201,36,1*57
$GPGSV,2,1,07,03,11,309,36,12,05,051,18,25,34,047,34,26,40,252,38,6*6A
$GPGSV,2,2,07,29,50,098,33,31,59,329,37,32,60,175,32,6*5C
$GLGSV,2,1,08,65,40,202,31,66,51,294,44,67,11,333,45,75,38,037,39,1*79
$GLGSV,2,2,08,76,50,311,46,77,14,270,29,84,10,029,26,,,,33,1*4C
$GLGSV,2,1,08,65,40,202,34,66,51,294,41,67,11,333,35,75,38,037,34,3*71
$GLGSV,2,2,08,76,50,311,42,77,14,270,34,84,10,029,23,85,25,088,26,3*7D
$GLGSV,1,1,02,72,00,172,,86,11,132,,0*74
$GAGSV,2,1,06,02,69,283,38,03,60,183,37,07,06,322,32,08,54,299,39,2*75
$GAGSV,2,2,06,25,49,040,32,30,20,246,32,2*7F
$GAGSV,2,1,07,02,69,283,41,03,60,183,40,07,06,322,37,08,54,299,42,7*76
$GAGSV,2,2,07,10,05,062,25,25,49,040,41,30,20,246,40,7*4D
$GAGSV,1,1,01,12,00,039,,0*4C
$GBGSV,2,1,06,06,58,319,40,09,45,314,41,16,67,329,41,23,42,289,47,1*70
$GBGSV,2,2,06,25,65,018,44,32,29,302,43,1*71
$GBGSV,1,1,04,06,58,319,39,09,45,314,34,12,,,32,16,67,329,37,3*4B
$GNGLL,3548.11281,N,13940.65155,E,060328.00,A,D*71
$GNRMC,060329.00,A,3548.11281,N,13940.65155,E,0.010,,101222,,,R,V*06
$GNVTG,,T,,M,0.010,N,0.019,K,D*31
$GNGGA,060329.00,3548.11281,N,13940.65155,E,4,12,0.73,5.9,M,39.2,M,,0000*46
$GNGSA,A,3,03,22,26,25,29,31,32,,,,,,1.24,0.73,1.01,1*0A
$GNGSA,A,3,76,75,67,65,66,77,,,,,,,1.24,0.73,1.01,2*00
$GNGSA,A,3,30,08,03,02,25,,,,,,,,1.24,0.73,1.01,3*0D
$GNGSA,A,3,25,23,32,06,09,16,,,,,,,1.24,0.73,1.01,4*08
$GNRMC,060330.00,A,3548.11281,N,13940.65155,E,0.016,,101222,,,R,V*08
$GNVTG,,T,,M,0.016,N,0.031,K,D*3D
$GNGGA,060330.00,3548.11281,N,13940.65155,E,4,12,0.73,5.9,M,39.2,M,,0000*4E
$GNGSA,A,3,03,22,26,25,29,31,32,,,,,,1.24,0.73,1.01,1*0A
$GNGSA,A,3,76,75,67,65,66,77,,,,,,,1.24,0.73,1.01,2*00
$GNGSA,A,3,30,08,03,02,25,,,,,,,,1.24,0.73,1.01,3*0D
$GNGSA,A,3,25,23,32,06,09,16,,,,,,,1.24,0.73,1.01,4*08
$GPGSV,3,1,11,02,04,107,17,03,11,309,41,12,05,051,27,22,75,276,43,1*6D
$GPGSV,3,2,11,25,34,047,40,26,40,252,44,29,50,098,37,31,59,329,41,1*6F
$GPGSV,3,3,11,32,60,175,40,41,18,249,32,50,46,201,36,1*57
$GPGSV,2,1,07,03,11,309,36,12,05,051,19,25,34,047,34,26,40,252,38,6*6B
$GPGSV,2,2,07,29,50,098,33,31,59,329,37,32,60,175,32,6*5C
$GLGSV,2,1,08,65,40,202,30,66,51,294,43,67,11,333,44,75,38,037,39,1*7E
$GLGSV,2,2,08,76,50,311,46,77,14,270,29,84,10,029,26,,,,33,1*4C
$GLGSV,2,1,08,65,40,202,35,66,51,294,41,67,11,333,35,75,38,037,34,3*70
$GLGSV,2,2,08,76,50,311,42,77,14,270,34,84,10,029,23,85,25,088,26,3*7D
$GLGSV,1,1,02,72,00,172,,86,11,132,,0*74
$GAGSV,2,1,06,02,69,283,38,03,60,183,37,07,06,322,32,08,54,299,39,2*75
$GAGSV,2,2,06,25,49,040,32,30,20,246,32,2*7F
$GAGSV,2,1,07,02,69,283,41,03,60,183,40,07,06,322,36,08,54,299,42,7*77
$GAGSV,2,2,07,10,05,062,26,25,49,040,41,30,20,246,40,7*4E
$GAGSV,1,1,01,12,00,039,,0*4C
$GBGSV,2,1,06,06,58,319,40,09,46,314,41,16,68,329,41,23,42,289,47,1*7C
$GBGSV,2,2,06,25,65,018,44,32,29,302,42,1*70
$GBGSV,1,1,04,06,58,319,39,09,46,314,34,12,,,32,16,68,329,37,3*47
$GNGLL,3548.11281,N,13940.65155,E,060330.00,A,D*78
$GNRMC,060331.00,A,3548.11281,N,13940.65155,E,0.011,,101222,,,R,V*0E
$GNVTG,,T,,M,0.011,N,0.021,K,D*3B
$GNGGA,060331.00,3548.11281,N,13940.65155,E,4,12,0.73,5.9,M,39.2,M,,0000*4F
$GNGSA,A,3,03,22,26,25,29,31,32,,,,,,1.24,0.73,1.01,1*0A
$GNGSA,A,3,76,75,67,65,66,77,,,,,,,1.24,0.73,1.01,2*00
$GNGSA,A,3,30,08,03,02,25,,,,,,,,1.24,0.73,1.01,3*0D
$GNGSA,A,3,25,23,32,06,09,16,,,,,,,1.24,0.73,1.01,4*08
$GPGSV,3,1,11,02,04,107,18,03,11,309,41,12,05,051,27,22,75,276,43,1*62
$GPGSV,3,2,11,25,34,047,41,26,40,252,44,29,50,098,37,31,59,329,41,1*6E
$GPGSV,3,3,11,32,60,175,41,41,18,249,33,50,46,201,36,1*57
$GPGSV,2,1,07,03,11,309,36,12,05,051,20,25,34,047,33,26,40,252,37,6*69
$GPGSV,2,2,07,29,50,098,33,31,59,329,37,32,60,175,32,6*5C
$GLGSV,2,1,08,65,40,202,30,66,51,294,44,67,11,333,45,75,38,037,39,1*78
$GLGSV,2,2,08,76,50,311,46,77,14,270,28,84,10,029,27,,,,33,1*4C
$GLGSV,2,1,08,65,40,202,35,66,51,294,41,67,11,333,35,75,38,037,34,3*70
$GLGSV,2,2,08,76,50,311,41,77,14,270,34,84,10,029,24,85,25,088,27,3*78
$GLGSV,1,1,02,72,00,172,,86,11,132,,0*74
$GAGSV,2,1,06,02,69,283,37,03,60,183,37,07,06,322,32,08,54,299,39,2*7A
$GAGSV,2,2,06,25,49,040,32,30,20,246,32,2*7F
$GAGSV,2,1,07,02,69,283,41,03,60,183,40,07,06,322,36,08,54,299,42,7*77
$GAGSV,2,2,07,10,05,062,26,25,49,040,41,30,20,246,40,7*4E
$GAGSV,1,1,01,12,00,039,,0*4C
$GBGSV,2,1,06,06,58,319,40,09,46,314,41,16,68,329,41,23,42,289,47,1*7C
$GBGSV,2,2,06,25,65,018,44,32,29,302,42,1*70
$GBGSV,1,1,04,06,58,319,39,09,46,314,34,12,,,32,16,68,329,37,3*47
$GNGLL,3548.11281,N,13940.65155,E,060331.00,A,D*79
$GNRMC,060332.00,A,3548.11281,N,13940.65155,E,0.020,,101222,,,R,V*0F
$GNVTG,,T,,M,0.020,N,0.038,K,D*31
$GNGGA,060332.00,3548.11281,N,13940.65155,E,4,12,0.73,5.9,M,39.2,M,,0000*4C
$GNGSA,A,3,03,22,26,25,29,31,32,,,,,,1.24,0.73,1.01,1*0A
$GNGSA,A,3,76,75,67,65,66,77,,,,,,,1.24,0.73,1.01,2*00
$GNGSA,A,3,30,08,03,02,25,,,,,,,,1.24,0.73,1.01,3*0D
$GNGSA,A,3,25,23,32,06,09,16,,,,,,,1.24,0.73,1.01,4*08
$GPGSV,3,1,11,02,04,107,18,03,11,309,41,12,05,051,27,22,75,276,43,1*62
$GPGSV,3,2,11,25,34,047,40,26,40,252,44,29,50,098,37,31,59,329,41,1*6F
$GPGSV,3,3,11,32,60,175,40,41,18,249,33,50,46,201,36,1*56
$GPGSV,2,1,07,03,11,309,36,12,05,051,20,25,34,047,33,26,40,252,37,6*69
$GPGSV,2,2,07,29,50,098,32,31,59,329,37,32,60,175,32,6*5D
$GLGSV,2,1,08,65,40,202,32,66,51,294,44,67,11,333,45,75,38,037,39,1*7A
$GLGSV,2,2,08,76,50,311,46,77,14,270,28,84,10,029,27,,,,34,1*4B
$GLGSV,2,1,08,65,40,202,34,66,51,294,41,67,11,333,35,75,38,037,34,3*71
$GLGSV,2,2,08,76,50,311,41,77,14,270,34,84,10,029,24,85,25,088,28,3*77
$GLGSV,1,1,02,72,00,172,,86,11,132,,0*74
$GAGSV,2,1,06,02,69,283,37,03,60,183,37,07,06,322,32,08,54,299,39,2*7A
$GAGSV,2,2,06,25,49,040,32,30,20,246,32,2*7F
$GAGSV,2,1,07,02,69,283,41,03,60,183,39,07,06,322,37,08,54,299,42,7*78
$GAGSV,2,2,07,10,05,062,26,25,49,040,41,30,20,246,39,7*40
$GAGSV,1,1,01,12,00,039,,0*4C
$GBGSV,2,1,06,06,58,319,40,09,46,314,41,16,68,329,41,23,42,289,47,1*7C
$GBGSV,2,2,06,25,64,019,43,32,29,302,42,1*77
$GBGSV,1,1,04,06,58,319,39,09,46,314,34,12,,,32,16,68,329,36,3*46
$GNGLL,3548.11281,N,13940.65155,E,060332.00,A,D*7A
$GNRMC,060333.00,A,3548.11281,N,13940.65154,E,0.015,,101222,,,R,V*09
$GNVTG,,T,,M,0.015,N,0.028,K,D*36
$GNGGA,060333.00,3548.11281,N,13940.65154,E,4,12,0.73,5.9,M,39.2,M,,0000*4C
$GNGSA,A,3,03,22,26,25,29,31,32,,,,,,1.24,0.73,1.01,1*0A
$GNGSA,A,3,76,75,67,65,66,77,,,,,,,1.24,0.73,1.01,2*00
$GNGSA,A,3,30,08,03,02,25,,,,,,,,1.24,0.73,1.01,3*0D
$GNGSA,A,3,25,23,32,06,09,16,,,,,,,1.24,0.73,1.01,4*08
$GPGSV,3,1,11,02,04,107,18,03,11,309,41,12,05,051,26,22,75,276,43,1*63
$GPGSV,3,2,11,25,34,047,41,26,40,252,44,29,50,098,37,31,59,329,41,1*6E
$GPGSV,3,3,11,32,60,175,40,41,18,249,36,50,46,201,36,1*53
$GPGSV,2,1,07,03,11,309,35,12,05,051,19,25,34,047,33,26,40,252,36,6*61
$GPGSV,2,2,07,29,50,098,32,31,59,329,36,32,60,175,31,6*5F
$GLGSV,2,1,08,65,40,202,31,66,51,294,44,67,11,333,44,75,38,037,39,1*78
$GLGSV,2,2,08,76,50,311,46,77,14,270,28,84,10,029,27,,,,33,1*4C
$GLGSV,2,1,08,65,40,202,35,66,51,294,41,67,11,333,35,75,38,037,34,3*70
$GLGSV,2,2,08,76,50,311,41,77,14,270,34,84,10,029,25,85,25,088,29,3*77
$GLGSV,1,1,02,72,00,172,,86,11,132,,0*74
$GAGSV,2,1,06,02,69,283,37,03,60,183,37,07,06,322,33,08,54,299,40,2*75
$GAGSV,2,2,06,25,49,040,32,30,20,246,32,2*7F
$GAGSV,2,1,07,02,69,283,42,03,60,183,39,07,06,322,37,08,54,299,42,7*7B
$GAGSV,2,2,07,10,05,062,26,25,49,040,42,30,20,246,39,7*43
$GAGSV,1,1,01,12,00,039,,0*4C
$GBGSV,2,1,06,06,58,319,40,09,46,314,41,16,68,329,41,23,42,289,47,1*7C
$GBGSV,2,2,06,25,64,019,43,32,29,301,43,1*75
$GBGSV,1,1,04,06,58,319,39,09,46,314,34,12,,,31,16,68,329,37,3*44
$GNGLL,3548.11281,N,13940.65154,E,060333.00,A,D*7A
$GNRMC,060334.00,A,3548.11281,N,13940.65154,E,0.005,,101222,,,R,V*0F
$GNVTG,,T,,M,0.005,N,0.010,K,D*3C
$GNGGA,060334.00,3548.11281,N,13940.65154,E,4,12,0.73,5.9,M,39.2,M,,0000*4B
$GNGSA,A,3,03,22,26,25,29,31,32,,,,,,1.24,0.73,1.01,1*0A
$GNGSA,A,3,76,75,67,65,66,77,,,,,,,1.24,0.73,1.01,2*00
$GNGSA,A,3,30,08,03,02,25,,,,,,,,1.24,0.73,1.01,3*0D
$GNGSA,A,3,25,23,32,06,09,16,,,,,,,1.24,0.73,1.01,4*08
$GPGSV,3,1,11,02,04,107,18,03,11,309,41,12,05,051,26,22,75,276,43,1*63
$GPGSV,3,2,11,25,34,047,41,26,40,252,44,29,50,098,37,31,59,329,41,1*6E
$GPGSV,3,3,11,32,60,175,40,41,18,249,36,50,46,201,36,1*53
$GPGSV,2,1,07,03,11,309,35,12,05,051,18,25,34,047,33,26,40,252,37,6*61
$GPGSV,2,2,07,29,50,098,32,31,59,329,36,32,60,175,31,6*5F
$GLGSV,2,1,08,65,40,202,30,66,51,294,44,67,11,333,44,75,38,037,39,1*79
$GLGSV,2,2,08,76,50,311,46,77,14,270,28,84,10,029,27,,,,33,1*4C
$GLGSV,2,1,08,65,40,202,35,66,51,294,41,67,11,333,35,75,38,037,34,3*70
$GLGSV,2,2,08,76,50,311,41,77,14,270,34,84,10,029,24,85,25,088,29,3*76
$GLGSV,1,1,02,72,00,172,,86,11,132,,0*74
$GAGSV,2,1,06,02,69,283,37,03,60,183,37,07,06,322,33,08,54,299,40,2*75
$GAGSV,2,2,06,25,49,040,32,30,20,246,32,2*7F
$GAGSV,2,1,07,02,69,283,42,03,60,183,39,07,06,322,37,08,54,299,42,7*7B
$GAGSV,2,2,07,10,05,062,27,25,49,040,42,30,20,246,40,7*4C
$GAGSV,1,1,01,12,00,039,,0*4C
$GBGSV,2,1,06,06,58,319,40,09,46,314,41,16,68,329,41,23,42,289,47,1*7C
$GBGSV,2,2,06,25,64,019,43,32,29,301,43,1*75
$GBGSV,1,1,04,06,58,319,39,09,46,314,34,12,,,31,16,68,329,36,3*45
$GNGLL,3548.11281,N,13940.65154,E,060334.00,A,D*7D
$GNRMC,060335.00,A,3548.11281,N,13940.65154,E,0.027,,101222,,,R,V*0E
$GNVTG,,T,,M,0.027,N,0.049,K,D*30
$GNGGA,060335.00,3548.11281,N,13940.65154,E,4,12,0.73,5.9,M,39.2,M,,0000*4A
$GNGSA,A,3,03,22,26,25,29,31,32,,,,,,1.24,0.73,1.01,1*0A
$GNGSA,A,3,76,75,67,65,66,77,,,,,,,1.24,0.73,1.01,2*00
$GNGSA,A,3,30,08,03,02,25,,,,,,,,1.24,0.73,1.01,3*0D
$GNGSA,A,3,25,23,32,06,09,16,,,,,,,1.24,0.73,1.01,4*08
$GPGSV,3,1,11,02,04,107,17,03,11,309,41,12,05,051,27,22,75,276,43,1*6D
$GPGSV,3,2,11,25,34,047,41,26,40,252,44,29,50,098,37,31,59,329,40,1*6F
$GPGSV,3,3,11,32,60,175,40,41,18,249,35,50,46,201,37,1*51
$GPGSV,2,1,07,03,11,309,35,12,05,051,20,25,34,047,33,26,40,252,36,6*6B
$GPGSV,2,2,07,29,50,098,32,31,59,329,36,32,60,175,30,6*5E
$GLGSV,2,1,08,65,40,202,32,66,51,294,44,67,11,333,44,75,38,037,39,1*7B
$GLGSV,2,2,08,76,50,311,46,77,14,270,28,84,10,029,27,,,,31,1*4E
$GLGSV,2,1,08,65,40,202,35,66,51,294,41,67,11,333,35,75,38,037,33,3*77
$GLGSV,2,2,08,76,50,311,41,77,14,270,34,84,10,029,24,85,25,088,30,3*7E
$GLGSV,1,1,02,72,00,172,,86,11,132,,0*74
$GAGSV,2,1,06,02,69,283,37,03,60,183,37,07,06,322,32,08,54,299,39,2*7A
$GAGSV,2,2,06,25,49,040,32,30,20,246,31,2*7C
$GAGSV,2,1,07,02,69,283,42,03,60,183,39,07,06,322,37,08,54,299,42,7*7B
$GAGSV,2,2,07,10,05,062,26,25,49,040,42,30,20,246,39,7*43
$GAGSV,1,1,01,12,00,039,,0*4C
$GBGSV,2,1,06,06,58,319,41,09,46,314,41,16,68,329,41,23,42,289,47,1*7D
$GBGSV,2,2,06,25,64,019,43,32,29,301,43,1*75
$GBGSV,1,1,04,06,58,319,39,09,46,314,34,12,,,31,16,68,329,36,3*45
$GNGLL,3548.11281,N,13940.65154,E,060335.00,A,D*7C
$GNRMC,060336.00,A,3548.11281,N,13940.65155,E,0.029,,101222,,,R,V*02
$GNVTG,,T,,M,0.029,N,0.054,K,D*32
$GNGGA,060336.00,3548.11281,N,13940.65155,E,4,12,0.73,6.0,M,39.2,M,,0000*42
$GNGSA,A,3,03,22,26,25,29,31,32,,,,,,1.24,0.73,1.01,1*0A
$GNGSA,A,3,76,75,67,65,66,77,,,,,,,1.24,0.73,1.01,2*00
$GNGSA,A,3,30,08,03,02,25,,,,,,,,1.24,0.73,1.01,3*0D
$GNGSA,A,3,25,23,32,06,09,16,,,,,,,1.24,0.73,1.01,4*08
$GPGSV,3,1,11,02,04,107,18,03,11,309,41,12,05,051,28,22,75,276,44,1*6A
$GPGSV,3,2,11,25,34,047,41,26,40,252,44,29,50,098,37,31,59,329,41,1*6E
$GPGSV,3,3,11,32,60,175,40,41,18,249,34,50,46,201,36,1*51
$GPGSV,2,1,07,03,11,309,36,12,05,051,20,25,34,047,33,26,40,252,36,6*68
$GPGSV,2,2,07,29,50,098,32,31,59,329,36,32,60,175,31,6*5F
$GLGSV,2,1,08,65,40,202,33,66,51,294,44,67,11,333,44,75,38,037,39,1*7A
$GLGSV,2,2,08,76,50,311,46,77,14,270,29,84,10,029,27,,,,31,1*4F
$GLGSV,2,1,08,65,40,202,35,66,51,294,41,67,11,333,35,75,38,037,33,3*77
$GLGSV,2,2,08,76,50,311,41,77,14,270,34,84,10,029,25,85,25,088,30,3*7F
$GLGSV,1,1,02,72,00,172,,86,11,132,,0*74
$GAGSV,2,1,06,02,69,283,37,03,60,183,36,07,06,322,32,08,54,299,39,2*7B
$GAGSV,2,2,06,25,49,040,32,30,20,246,31,2*7C
$GAGSV,2,1,07,02,69,283,42,03,60,183,39,07,06,322,37,08,54,299,43,7*7A
$GAGSV,2,2,07,10,05,062,26,25,49,040,42,30,20,246,39,7*43
$GAGSV,1,1,01,12,00,039,,0*4C
$GBGSV,2,1,06,06,58,319,41,09,46,314,41,16,68,329,41,23,42,289,47,1*7D
$GBGSV,2,2,06,25,64,019,43,32,29,301,43,1*75
$GBGSV,1,1,04,06,58,319,39,09,46,314,33,12,,,31,16,68,329,36,3*42
$GNGLL,3548.11281,N,13940.65155,E,060336.00,A,D*7E
$GNRMC,060337.00,A,3548.11281,N,13940.65155,E,0.019,,101222,,,R,V*00
$GNVTG,,T,,M,0.019,N,0.035,K,D*36
$GNGGA,060337.00,3548.11281,N,13940.65155,E,4,12,0.73,6.0,M,39.2,M,,0000*43
$GNGSA,A,3,03,22,26,25,29,31,32,,,,,,1.24,0.73,1.01,1*0A
$GNGSA,A,3,76,75,67,65,66,77,,,,,,,1.24,0.73,1.01,2*00
$GNGSA,A,3,30,08,03,02,25,,,,,,,,1.24,0.73,1.01,3*0D
$GNGSA,A,3,25,23,32,06,09,16,,,,,,,1.24,0.73,1.01,4*08
$GPGSV,3,1,11,02,04,107,20,03,11,309,41,12,05,051,28,22,75,276,43,1*66
$GPGSV,3,2,11,25,34,047,41,26,40,252,44,29,50,098,37,31,59,329,41,1*6E
$GPGSV,3,3,11,32,60,175,40,41,18,249,34,50,46,201,36,1*51
$GPGSV,2,1,07,03,11,309,36,12,05,051,20,25,34,047,33,26,40,252,36,6*68
$GPGSV,2,2,07,29,50,098,31,31,59,329,36,32,60,175,31,6*5C
$GLGSV,2,1,08,65,40,202,33,66,51,294,44,67,11,333,44,75,38,037,39,1*7A
$GLGSV,2,2,08,76,50,311,46,77,14,270,29,84,10,029,26,,,,31,1*4E
$GLGSV,2,1,08,65,40,202,35,66,51,294,41,67,11,333,35,75,38,037,33,3*77
$GLGSV,2,2,08,76,50,311,41,77,14,270,34,84,10,029,25,85,25,088,29,3*77
$GLGSV,1,1,02,72,00,172,,86,11,132,,0*74
$GAGSV,2,1,06,02,69,283,37,03,60,183,36,07,06,322,32,08,54,299,39,2*7B
$GAGSV,2,2,06,25,49,040,32,30,20,246,31,2*7C
$GAGSV,2,1,07,02,69,283,42,03,60,183,39,07,06,322,37,08,54,299,43,7*7A
$GAGSV,2,2,07,10,05,062,25,25,49,040,41,30,20,246,39,7*43
$GAGSV,1,1,01,12,00,039,,0*4C
$GBGSV,2,1,06,06,58,319,41,09,46,314,41,16,68,329,41,23,42,289,47,1*7D
$GBGSV,2,2,06,25,64,019,43,32,29,301,43,1*75
$GBGSV,1,1,04,06,58,319,39,09,46,314,33,12,,,31,16,68,329,36,3*42
$GNGLL,3548.11281,N,13940.65155,E,060337.00,A,D*7F
$GNRMC,060338.00,A,3548.11281,N,13940.65155,E,0.003,,101222,,,R,V*04
$GNVTG,,T,,M,0.003,N,0.006,K,D*3D
$GNGGA,060338.00,3548.11281,N,13940.65155,E,4,12,0.73,5.9,M,39.2,M,,0000*46
$GNGSA,A,3,03,22,26,25,29,31,32,,,,,,1.24,0.73,1.01,1*0A
$GNGSA,A,3,76,75,67,65,66,77,,,,,,,1.24,0.73,1.01,2*00
$GNGSA,A,3,30,08,03,02,25,,,,,,,,1.24,0.73,1.01,3*0D
$GNGSA,A,3,25,23,32,06,09,16,,,,,,,1.24,0.73,1.01,4*08
$GPGSV,3,1,11,02,04,107,22,03,11,309,40,12,05,051,28,22,75,276,43,1*65
$GPGSV,3,2,11,25,34,047,41,26,40,252,44,29,50,098,37,31,59,329,41,1*6E
$GPGSV,3,3,11,32,60,175,40,41,18,249,34,50,46,201,36,1*51
$GPGSV,2,1,07,03,11,309,36,12,05,051,19,25,34,047,33,26,40,252,36,6*62
$GPGSV,2,2,07,29,50,098,31,31,59,329,36,32,60,175,31,6*5C
$GLGSV,2,1,08,65,40,202,32,66,51,294,44,67,11,333,44,75,38,037,39,1*7B
$GLGSV,2,2,08,76,50,311,46,77,14,270,29,84,10,029,26,,,,31,1*4E
$GLGSV,2,1,08,65,40,202,35,66,51,294,41,67,11,333,35,75,38,037,33,3*77
$GLGSV,2,2,08,76,50,311,41,77,14,270,34,84,10,029,25,85,25,088,29,3*77
$GLGSV,1,1,02,72,00,172,,86,11,132,,0*74
$GAGSV,2,1,06,02,69,283,37,03,60,183,36,07,06,322,32,08,54,299,39,2*7B
$GAGSV,2,2,06,25,49,040,32,30,20,246,31,2*7C
$GAGSV,2,1,07,02,69,283,42,03,60,183,39,07,06,322,37,08,54,299,43,7*7A
$GAGSV,2,2,07,10,05,062,26,25,49,040,41,30,20,246,39,7*40
$GAGSV,1,1,01,12,00,039,,0*4C
$GBGSV,2,1,06,06,58,319,41,09,46,314,41,16,68,329,41,23,42,289,48,1*72
$GBGSV,2,2,06,25,64,019,43,32,29,301,43,1*75
$GBGSV,1,1,04,06,58,319,39,09,46,314,33,12,,,31,16,68,329,36,3*42
$GNGLL,3548.11281,N,13940.65155,E,060338.00,A,D*70
$GNRMC,060339.00,A,3548.11281,N,13940.65155,E,0.014,,101222,,,R,V*03
$GNVTG,,T,,M,0.014,N,0.027,K,D*38
$GNGGA,060339.00,3548.11281,N,13940.65155,E,4,12,0.73,6.0,M,39.2,M,,0000*4D
$GNGSA,A,3,03,22,26,25,29,31,32,,,,,,1.24,0.73,1.01,1*0A
$GNGSA,A,3,76,75,67,65,66,77,,,,,,,1.24,0.73,1.01,2*00
$GNGSA,A,3,30,08,03,02,25,,,,,,,,1.24,0.73,1.01,3*0D
$GNGSA,A,3,25,23,32,06,09,16,,,,,,,1.24,0.73,1.01,4*08
$GPGSV,3,1,11,02,04,107,21,03,11,309,40,12,05,051,28,22,75,276,43,1*66
$GPGSV,3,2,11,25,34,047,41,26,40,252,44,29,50,098,37,31,59,329,40,1*6F
$GPGSV,3,3,11,32,60,175,40,41,18,249,34,50,46,201,36,1*51
$GPGSV,2,1,07,03,11,309,36,12,05,051,18,25,34,047,33,26,40,252,36,6*63
$GPGSV,2,2,07,29,50,098,31,31,59,329,36,32,60,175,31,6*5C
$GLGSV,2,1,08,65,40,202,32,66,51,293,44,67,11,333,44,75,38,037,39,1*7C
$GLGSV,2,2,08,76,50,311,46,77,14,270,29,84,10,029,26,89,,,30,1*4E
$GLGSV,2,1,08,65,40,202,35,66,51,293,41,67,11,333,35,75,38,037,34,3*77
$GLGSV,2,2,08,76,50,311,41,77,14,270,33,84,10,029,26,85,25,088,29,3*73
$GLGSV,1,1,02,72,00,172,,86,11,132,,0*74
$GAGSV,2,1,06,02,69,283,37,03,60,183,36,07,06,322,32,08,54,299,39,2*7B
$GAGSV,2,2,06,25,49,040,32,30,20,246,31,2*7C
$GAGSV,2,1,07,02,69,283,42,03,60,183,40,07,06,322,37,08,54,299,43,7*74
$GAGSV,2,2,07,10,05,062,26,25,49,040,42,30,20,246,39,7*43
$GAGSV,1,1,01,12,00,039,,0*4C
$GBGSV,2,1,06,06,58,319,41,09,46,314,41,16,68,329,41,23,42,289,48,1*72
$GBGSV,2,2,06,25,64,019,43,32,29,301,43,1*75
$GBGSV,1,1,04,06,58,319,39,09,46,314,34,12,,,31,16,68,329,36,3*45
$GNGLL,3548.11281,N,13940.65155,E,060339.00,A,D*71
$GNRMC,060340.00,A,3548.11281,N,13940.65155,E,0.006,,101222,,,R,V*0E
$GNVTG,,T,,M,0.006,N,0.010,K,D*3F
$GNGGA,060340.00,3548.11281,N,13940.65155,E,4,12,0.73,6.0,M,39.2,M,,0000*43
$GNGSA,A,3,03,22,26,25,29,31,32,,,,,,1.24,0.73,1.01,1*0A
$GNGSA,A,3,76,75,67,65,66,77,,,,,,,1.24,0.73,1.01,2*00
$GNGSA,A,3,30,08,03,02,25,,,,,,,,1.24,0.73,1.01,3*0D
$GNGSA,A,3,25,23,32,06,09,16,,,,,,,1.24,0.73,1.01,4*08
$GPGSV,3,1,11,02,04,107,20,03,11,309,41,12,05,051,29,22,75,276,44,1*60
$GPGSV,3,2,11,25,34,047,40,26,40,252,44,29,50,098,36,31,59,329,40,1*6F
$GPGSV,3,3,11,32,60,175,40,41,18,249,35,50,46,201,36,1*50
$GPGSV,2,1,07,03,11,309,35,12,05,051,18,25,34,047,33,26,40,252,36,6*60
$GPGSV,2,2,07,29,50,098,31,31,59,329,36,32,60,175,30,6*5D
$GLGSV,2,1,07,65,40,202,31,66,51,293,44,67,11,333,44,75,38,037,39,1*70
$GLGSV,2,2,07,76,50,311,46,77,14,270,28,84,10,029,27,1*43
$GLGSV,2,1,08,65,40,202,35,66,51,293,41,67,11,333,34,75,38,037,34,3*76
$GLGSV,2,2,08,76,50,311,41,77,14,270,33,84,10,029,26,85,25,088,29,3*73
$GLGSV,1,1,02,72,00,172,,86,11,132,,0*74
$GAGSV,2,1,06,02,69,283,37,03,60,183,36,07,06,322,32,08,54,299,39,2*7B
$GAGSV,2,2,06,25,49,040,31,30,20,246,31,2*7F
$GAGSV,2,1,07,02,69,283,42,03,60,183,40,07,06,322,37,08,54,299,43,7*74
$GAGSV,2,2,07,10,05,062,26,25,49,040,42,30,20,246,38,7*42
$GAGSV,1,1,01,12,00,039,,0*4C
$GBGSV,2,1,06,06,58,319,41,09,46,314,42,16,68,329,41,23,42,289,48,1*71
$GBGSV,2,2,06,25,64,019,43,32,29,301,43,1*75
$GBGSV,1,1,04,06,58,319,39,09,46,314,34,12,,,31,16,68,329,36,3*45
$GNGLL,3548.11281,N,13940.65155,E,060340.00,A,D*7F
$GNRMC,060341.00,A,3548.11281,N,13940.65155,E,0.010,,101222,,,R,V*08
$GNVTG,,T,,M,0.010,N,0.019,K,D*31
$GNGGA,060341.00,3548.11281,N,13940.65155,E,4,12,0.73,6.0,M,39.2,M,,0000*42
$GNGSA,A,3,03,22,26,25,29,31,32,,,,,,1.24,0.73,1.01,1*0A
$GNGSA,A,3,76,75,67,65,66,77,,,,,,,1.24,0.73,1.01,2*00
$GNGSA,A,3,30,08,03,02,25,,,,,,,,1.24,0.73,1.01,3*0D
$GNGSA,A,3,25,23,32,06,09,16,,,,,,,1.24,0.73,1.01,4*08
$GPGSV,3,1,11,02,04,107,19,03,11,309,41,12,05,051,29,22,75,276,44,1*6A
$GPGSV,3,2,11,25,34,047,40,26,40,252,44,29,50,098,36,31,59,329,40,1*6F
$GPGSV,3,3,11,32,60,175,41,41,18,249,35,50,46,201,36,1*51
$GPGSV,2,1,07,03,11,309,34,12,05,051,16,25,34,047,33,26,40,252,35,6*6C
$GPGSV,2,2,07,29,50,098,31,31,59,329,35,32,60,175,29,6*56
$GLGSV,2,1,07,65,40,202,31,66,51,293,44,67,11,333,44,75,38,037,38,1*71
$GLGSV,2,2,07,76,50,311,46,77,14,270,28,84,10,029,27,1*43
$GLGSV,2,1,08,65,40,202,35,66,51,293,41,67,11,333,35,75,38,037,34,3*77
$GLGSV,2,2,08,76,50,311,41,77,14,270,33,84,10,029,26,85,25,088,29,3*73
$GLGSV,1,1,02,72,00,172,,86,11,132,,0*74
$GAGSV,2,1,06,02,69,283,37,03,60,183,36,07,06,322,32,08,54,299,39,2*7B
$GAGSV,2,2,06,25,49,040,32,30,20,246,31,2*7C
$GAGSV,2,1,07,02,69,283,42,03,60,183,40,07,06,322,37,08,54,299,43,7*74
$GAGSV,2,2,07,10,05,062,26,25,49,040,42,30,20,246,38,7*42
$GAGSV,1,1,01,12,00,039,,0*4C
$GBGSV,2,1,06,06,58,319,41,09,46,314,41,16,68,329,41,23,42,289,48,1*72
$GBGSV,2,2,06,25,64,019,43,32,29,301,43,1*75
$GBGSV,1,1,04,06,58,319,39,09,46,314,34,12,,,31,16,68,329,36,3*45
$GNGLL,3548.11281,N,13940.65155,E,060341.00,A,D*7E
$GNRMC,060342.00,A,3548.11281,N,13940.65155,E,0.005,,101222,,,R,V*0F
$GNVTG,,T,,M,0.005,N,0.008,K,D*35
$GNGGA,060342.00,3548.11281,N,13940.65155,E,4,12,0.73,6.0,M,39.2,M,,0000*41
$GNGSA,A,3,03,22,26,25,29,31,32,,,,,,1.24,0.73,1.01,1*0A
$GNGSA,A,3,76,75,67,65,66,77,,,,,,,1.24,0.73,1.01,2*00
$GNGSA,A,3,30,08,03,02,25,,,,,,,,1.24,0.73,1.01,3*0D
$GNGSA,A,3,25,23,32,06,09,16,,,,,,,1.24,0.73,1.01,4*08
$GPGSV,3,1,11,02,04,107,19,03,11,309,41,12,05,051,29,22,75,276,44,1*6A
$GPGSV,3,2,11,25,34,047,40,26,40,252,44,29,50,098,36,31,59,329,40,1*6F
$GPGSV,3,3,11,32,60,175,41,41,18,249,35,50,46,201,36,1*51
$GPGSV,2,1,07,03,11,309,35,12,05,051,16,25,34,047,32,26,40,252,35,6*6C
$GPGSV,2,2,07,29,50,098,31,31,59,329,36,32,60,175,29,6*55
$GLGSV,2,1,07,65,40,202,31,66,51,293,44,67,11,333,44,75,38,037,39,1*70
$GLGSV,2,2,07,76,50,311,46,77,14,270,28,84,10,029,27,1*43
$GLGSV,2,1,08,65,40,202,35,66,51,293,41,67,11,333,35,75,38,037,34,3*77
$GLGSV,2,2,08,76,50,311,41,77,14,270,34,84,10,029,26,85,25,088,29,3*74
$GLGSV,1,1,02,72,00,172,,86,11,132,,0*74
$GAGSV,2,1,06,02,69,283,37,03,60,183,36,07,06,322,32,08,54,299,39,2*7B
$GAGSV,2,2,06,25,49,040,32,30,20,246,31,2*7C
$GAGSV,2,1,07,02,69,283,42,03,60,183,40,07,06,322,37,08,54,299,43,7*74
$GAGSV,2,2,07,10,05,062,26,25,49,040,42,30,20,246,39,7*43
$GAGSV,1,1,01,12,00,039,,0*4C
$GBGSV,2,1,06,06,58,319,41,09,46,314,41,16,68,329,41,23,42,289,48,1*72
$GBGSV,2,2,06,25,64,019,43,32,29,301,44,1*72
$GBGSV,1,1,04,06,58,319,39,09,46,314,34,12,,,31,16,68,329,36,3*45
$GNGLL,3548.11281,N,13940.65155,E,060342.00,A,D*7D
$GNRMC,060343.00,A,3548.11281,N,13940.65155,E,0.006,,101222,,,R,V*0D
$GNVTG,,T,,M,0.006,N,0.010,K,D*3F
$GNGGA,060343.00,3548.11281,N,13940.65155,E,4,12,0.73,6.0,M,39.2,M,,0000*40
$GNGSA,A,3,03,22,26,25,29,31,32,,,,,,1.24,0.73,1.01,1*0A
$GNGSA,A,3,76,75,67,65,66,77,,,,,,,1.24,0.73,1.01,2*00
$GNGSA,A,3,30,08,03,02,25,,,,,,,,1.24,0.73,1.01,3*0D
$GNGSA,A,3,25,23,32,06,09,16,,,,,,,1.24,0.73,1.01,4*08
$GPGSV,3,1,11,02,04,107,21,03,11,309,41,12,05,051,29,22,75,276,44,1*61
$GPGSV,3,2,11,25,34,047,40,26,40,252,44,29,50,098,36,31,59,329,40,1*6F
$GPGSV,3,3,11,32,60,175,40,41,18,249,34,50,46,201,37,1*50
$GPGSV,2,1,07,03,11,309,35,12,05,051,16,25,34,047,32,26,40,252,35,6*6C
$GPGSV,2,2,07,29,50,098,31,31,59,329,36,32,60,175,29,6*55
$GLGSV,2,1,07,65,40,202,31,66,51,293,44,67,11,333,44,75,38,037,39,1*70
$GLGSV,2,2,07,76,50,311,46,77,14,270,29,84,10,029,28,1*4D
$GLGSV,2,1,08,65,40,202,35,66,51,293,41,67,11,333,35,75,38,037,33,3*70
$GLGSV,2,2,08,76,50,311,41,77,14,270,34,84,10,029,26,85,25,088,29,3*74
$GLGSV,1,1,02,72,00,172,,86,11,132,,0*74
$GAGSV,2,1,06,02,69,283,37,03,60,183,37,07,06,322,32,08,54,299,39,2*7A
$GAGSV,2,2,06,25,49,040,32,30,20,246,31,2*7C
$GAGSV,2,1,07,02,69,283,42,03,60,183,39,07,06,322,37,08,54,299,43,7*7A
$GAGSV,2,2,07,10,05,062,26,25,49,040,42,30,20,246,39,7*43
$GAGSV,1,1,01,12,00,039,,0*4C
$GBGSV,2,1,06,06,58,319,41,09,46,314,41,16,68,329,41,23,42,289,48,1*72
$GBGSV,2,2,06,25,64,019,43,32,29,301,43,1*75
$GBGSV,1,1,04,06,58,319,39,09,46,314,33,12,,,31,16,68,329,36,3*42
$GNGLL,3548.11281,N,13940.65155,E,060343.00,A,D*7C
$GNRMC,060344.00,A,3548.11281,N,13940.65155,E,0.007,,101222,,,R,V*0B
$GNVTG,,T,,M,0.007,N,0.013,K,D*3D
$GNGGA,060344.00,3548.11281,N,13940.65155,E,4,12,0.73,6.0,M,39.2,M,,0000*47
$GNGSA,A,3,03,22,26,25,29,31,32,,,,,,1.24,0.73,1.01,1*0A
$GNGSA,A,3,76,75,67,65,66,77,,,,,,,1.24,0.73,1.01,2*00
$GNGSA,A,3,30,08,03,02,25,,,,,,,,1.24,0.73,1.01,3*0D
$GNGSA,A,3,25,23,32,06,09,16,,,,,,,1.24,0.73,1.01,4*08
$GPGSV,3,1,11,02,04,107,22,03,11,309,41,12,05,051,29,22,75,276,44,1*62
$GPGSV,3,2,11,25,34,047,41,26,40,252,44,29,50,098,37,31,59,329,40,1*6F
$GPGSV,3,3,11,32,60,175,40,41,18,249,34,50,46,201,36,1*51
$GPGSV,2,1,07,03,11,309,35,12,05,051,17,25,34,047,32,26,40,252,35,6*6D
$GPGSV,2,2,07,29,50,098,31,31,59,329,36,32,60,175,29,6*55
$GLGSV,2,1,07,65,40,202,32,66,51,293,44,67,11,333,44,75,38,037,39,1*73
$GLGSV,2,2,07,76,50,311,46,77,14,270,29,84,10,029,28,1*4D
$GLGSV,2,1,08,65,40,202,35,66,51,293,41,67,11,333,36,75,38,037,33,3*73
$GLGSV,2,2,08,76,50,311,41,77,14,270,34,84,10,029,26,85,25,088,29,3*74
$GLGSV,1,1,02,72,00,172,,86,11,132,,0*74
$GAGSV,2,1,06,02,69,283,37,03,60,183,36,07,06,322,32,08,54,299,39,2*7B
$GAGSV,2,2,06,25,49,040,32,30,20,246,31,2*7C
$GAGSV,2,1,07,02,69,283,42,03,60,183,39,07,06,322,37,08,54,299,43,7*7A
$GAGSV,2,2,07,10,05,062,26,25,49,040,42,30,20,246,39,7*43
$GAGSV,1,1,01,12,00,039,,0*4C
$GBGSV,2,1,06,06,58,319,41,09,46,314,41,16,68,329,41,23,42,289,48,1*72
$GBGSV,2,2,06,25,64,019,43,32,29,301,43,1*75
$GBGSV,2,1,05,06,58,319,39,09,46,314,33,12,,,31,16,68,329,36,3*40
$GBGSV,2,2,05,25,64,019,15,3*48
$GNGLL,3548.11281,N,13940.65155,E,060344.00,A,D*7B
$GNRMC,060345.00,A,3548.11281,N,13940.65155,E,0.007,,101222,,,R,V*0A
$GNVTG,,T,,M,0.007,N,0.012,K,D*3C
$GNGGA,060345.00,3548.11281,N,13940.65155,E,4,12,0.73,6.0,M,39.2,M,,0000*46
$GNGSA,A,3,03,22,26,25,29,31,32,,,,,,1.24,0.73,1.01,1*0A
$GNGSA,A,3,76,75,67,65,66,77,,,,,,,1.24,0.73,1.01,2*00
$GNGSA,A,3,30,08,03,02,25,,,,,,,,1.24,0.73,1.01,3*0D
$GNGSA,A,3,25,23,32,06,09,16,,,,,,,1.24,0.73,1.01,4*08
$GPGSV,3,1,11,02,04,107,22,03,11,309,41,12,05,051,29,22,75,276,44,1*62
$GPGSV,3,2,11,25,34,047,41,26,40,252,44,29,50,098,36,31,59,329,40,1*6E
$GPGSV,3,3,11,32,60,175,41,41,18,249,34,50,46,201,36,1*50
$GPGSV,2,1,07,03,11,309,35,12,05,051,17,25,34,047,32,26,40,252,35,6*6D
$GPGSV,2,2,07,29,50,098,31,31,59,329,36,32,60,175,29,6*55
$GLGSV,2,1,07,65,40,202,33,66,51,293,44,67,11,333,44,75,38,037,39,1*72
$GLGSV,2,2,07,76,50,311,46,77,14,270,29,84,10,029,27,1*42
$GLGSV,2,1,08,65,40,202,35,66,51,293,41,67,11,333,35,75,38,037,33,3*70
$GLGSV,2,2,08,76,50,311,41,77,14,270,33,84,10,029,25,85,25,088,29,3*70
$GLGSV,1,1,02,72,00,172,,86,11,132,,0*74
$GAGSV,2,1,06,02,69,283,37,03,60,183,36,07,06,322,32,08,54,299,39,2*7B
$GAGSV,2,2,06,25,49,040,32,30,20,246,31,2*7C
$GAGSV,2,1,07,02,69,283,42,03,60,183,39,07,06,322,37,08,54,299,43,7*7A
$GAGSV,2,2,07,10,05,062,26,25,49,040,42,30,20,246,39,7*43
$GAGSV,1,1,01,12,00,039,,0*4C
$GBGSV,2,1,06,06,58,319,41,09,46,314,41,16,68,329,41,23,42,289,48,1*72
$GBGSV,2,2,06,25,64,019,43,32,29,301,43,1*75
$GBGSV,2,1,05,06,58,319,39,09,46,314,33,12,,,31,16,68,329,36,3*40
$GBGSV,2,2,05,25,64,019,13,3*4E
$GNGLL,3548.11281,N,13940.65155,E,060345.00,A,D*7A
$GNRMC,060346.00,A,3548.11281,N,13940.65155,E,0.008,,101222,,,R,V*06
$GNVTG,,T,,M,0.008,N,0.014,K,D*35
$GNGGA,060346.00,3548.11281,N,13940.65155,E,4,12,0.73,6.0,M,39.2,M,,0000*45
$GNGSA,A,3,03,22,26,25,29,31,32,,,,,,1.24,0.73,1.01,1*0A
$GNGSA,A,3,76,75,67,65,66,77,,,,,,,1.24,0.73,1.01,2*00
$GNGSA,A,3,30,08,03,02,25,,,,,,,,1.24,0.73,1.01,3*0D
$GNGSA,A,3,25,23,32,06,09,16,,,,,,,1.24,0.73,1.01,4*08
$GPGSV,3,1,11,02,04,107,22,03,11,309,41,12,05,051,30,22,75,276,44,1*6A
$GPGSV,3,2,11,25,34,047,40,26,40,252,44,29,50,098,36,31,59,329,40,1*6F
$GPGSV,3,3,11,32,60,175,41,41,18,249,35,50,46,201,36,1*51
$GPGSV,2,1,07,03,11,309,35,12,05,051,16,25,34,047,32,26,40,252,35,6*6C
$GPGSV,2,2,07,29,50,098,31,31,59,329,36,32,60,175,29,6*55
$GLGSV,2,1,07,65,40,202,33,66,51,293,44,67,11,333,44,75,38,037,39,1*72
$GLGSV,2,2,07,76,50,311,46,77,14,270,29,84,10,029,27,1*42
$GLGSV,2,1,08,65,40,202,35,66,51,293,41,67,11,333,35,75,38,037,34,3*77
$GLGSV,2,2,08,76,50,311,41,77,14,270,34,84,10,029,25,85,25,088,29,3*77
$GLGSV,1,1,02,72,00,172,,86,11,132,,0*74
$GAGSV,2,1,06,02,69,283,37,03,60,183,36,07,06,322,32,08,54,299,39,2*7B
$GAGSV,2,2,06,25,49,040,31,30,20,246,30,2*7E
$GAGSV,2,1,07,02,69,283,42,03,60,183,40,07,06,322,37,08,54,299,43,7*74
$GAGSV,2,2,07,10,05,062,26,25,49,040,42,30,20,246,39,7*43
$GAGSV,1,1,01,12,00,039,,0*4C
$GBGSV,2,1,06,06,58,319,41,09,46,314,41,16,68,329,41,23,42,289,48,1*72
$GBGSV,2,2,06,25,64,019,43,32,29,301,43,1*75
$GBGSV,2,1,05,06,58,319,39,09,46,314,34,12,,,31,16,68,329,36,3*47
$GBGSV,2,2,05,25,64,019,10,3*4D
$GNGLL,3548.11281,N,13940.65155,E,060346.00,A,D*79
$GNRMC,060347.00,A,3548.11281,N,13940.65155,E,0.006,,101222,,,R,V*09
$GNVTG,,T,,M,0.006,N,0.012,K,D*3D
$GNGGA,060347.00,3548.11281,N,13940.65155,E,4,12,0.73,6.0,M,39.2,M,,0000*44
$GNGSA,A,3,03,22,26,25,29,31,32,,,,,,1.24,0.73,1.01,1*0A
$GNGSA,A,3,76,75,67,65,66,77,,,,,,,1.24,0.73,1.01,2*00
$GNGSA,A,3,30,08,03,02,25,,,,,,,,1.24,0.73,1.01,3*0D
$GNGSA,A,3,25,23,32,06,09,16,,,,,,,1.24,0.73,1.01,4*08
$GPGSV,3,1,11,02,04,107,22,03,11,309,41,12,05,051,29,22,75,276,43,1*65
$GPGSV,3,2,11,25,34,047,40,26,40,252,45,29,50,098,36,31,59,329,40,1*6E
$GPGSV,3,3,11,32,60,175,41,41,18,249,36,50,46,201,37,1*53
$GPGSV,2,1,07,03,11,309,35,12,05,051,16,25,34,047,33,26,40,252,35,6*6D
$GPGSV,2,2,07,29,50,098,31,31,59,329,36,32,60,175,30,6*5D
$GLGSV,2,1,07,65,40,202,32,66,51,293,44,67,11,333,44,75,38,037,39,1*73
$GLGSV,2,2,07,76,50,311,46,77,14,270,29,84,10,029,27,1*42
$GLGSV,2,1,08,65,40,202,35,66,51,293,41,67,11,333,35,75,38,037,34,3*77
$GLGSV,2,2,08,76,50,311,42,77,14,270,33,84,10,029,26,85,25,088,30,3*78
$GLGSV,1,1,02,72,00,172,,86,11,132,,0*74
$GAGSV,2,1,06,02,69,283,37,03,60,183,36,07,06,322,32,08,54,299,39,2*7B
$GAGSV,2,2,06,25,49,040,30,30,20,246,30,2*7F
$GAGSV,2,1,07,02,69,283,42,03,60,183,39,07,06,322,37,08,54,299,43,7*7A
$GAGSV,2,2,07,10,05,062,26,25,49,040,42,30,20,246,39,7*43
$GAGSV,1,1,01,12,00,039,,0*4C
$GBGSV,2,1,06,06,58,319,41,09,46,314,42,16,68,329,42,23,42,289,48,1*72
$GBGSV,2,2,06,25,64,019,43,32,29,301,43,1*75
$GBGSV,2,1,05,06,58,319,39,09,46,314,34,12,,,31,16,68,329,36,3*47
$GBGSV,2,2,05,25,64,019,08,3*44
$GNGLL,3548.11281,N,13940.65155,E,060347.00,A,D*78
$GNRMC,060348.00,A,3548.11281,N,13940.65155,E,0.012,,101222,,,R,V*03
$GNVTG,,T,,M,0.012,N,0.023,K,D*3A
$GNGGA,060348.00,3548.11281,N,13940.65155,E,4,12,0.73,6.0,M,39.2,M,,0000*4B
$GNGSA,A,3,03,22,26,25,29,31,32,,,,,,1.24,0.73,1.01,1*0A
$GNGSA,A,3,76,75,67,65,66,77,,,,,,,1.24,0.73,1.01,2*00
$GNGSA,A,3,30,08,03,02,25,,,,,,,,1.24,0.73,1.01,3*0D
$GNGSA,A,3,25,23,32,06,09,16,,,,,,,1.24,0.73,1.01,4*08
$GPGSV,3,1,11,02,04,107,23,03,11,309,41,12,05,051,29,22,75,276,44,1*63
$GPGSV,3,2,11,25,34,047,40,26,40,252,45,29,50,098,36,31,59,329,40,1*6E
$GPGSV,3,3,11,32,60,175,41,41,18,249,37,50,46,201,37,1*52
$GPGSV,2,1,07,03,11,309,35,12,05,051,16,25,34,047,33,26,40,252,35,6*6D
$GPGSV,2,2,07,29,50,098,32,31,59,329,35,32,60,175,29,6*55
$GLGSV,2,1,07,65,40,202,32,66,51,293,44,67,11,333,44,75,37,038,39,1*73
$GLGSV,2,2,07,76,50,311,46,77,14,270,29,84,10,029,26,1*43
$GLGSV,2,1,08,65,40,202,35,66,51,293,42,67,11,333,35,75,37,038,33,3*73
$GLGSV,2,2,08,76,50,311,42,77,14,270,33,84,10,029,26,85,25,088,29,3*70
$GLGSV,1,1,02,72,00,172,,86,11,132,,0*74
$GAGSV,2,1,06,02,69,283,37,03,60,183,36,07,06,322,32,08,54,299,39,2*7B
$GAGSV,2,2,06,25,49,040,30,30,20,246,30,2*7F
$GAGSV,2,1,07,02,69,283,42,03,60,183,39,07,06,322,37,08,54,299,43,7*7A
$GAGSV,2,2,07,10,05,062,27,25,49,040,42,30,20,246,39,7*42
$GAGSV,1,1,01,12,00,039,,0*4C
$GBGSV,2,1,06,06,58,319,41,09,46,314,42,16,68,329,41,23,42,289,48,1*71
$GBGSV,2,2,06,25,64,019,43,32,29,301,43,1*75
$GBGSV,2,1,05,06,58,319,39,09,46,314,34,12,,,30,16,68,329,36,3*46
$GBGSV,2,2,05,25,64,019,08,3*44
$GNGLL,3548.11281,N,13940.65155,E,060348.00,A,D*77
$GNRMC,060349.00,A,3548.11281,N,13940.65155,E,0.008,,101222,,,R,V*09
$GNVTG,,T,,M,0.008,N,0.015,K,D*34
$GNGGA,060349.00,3548.11281,N,13940.65155,E,4,12,0.73,6.0,M,39.2,M,,0000*4A
$GNGSA,A,3,03,22,26,25,29,31,32,,,,,,1.24,0.73,1.01,1*0A
$GNGSA,A,3,76,75,67,65,66,77,,,,,,,1.24,0.73,1.01,2*00
$GNGSA,A,3,30,08,03,02,25,,,,,,,,1.24,0.73,1.01,3*0D
$GNGSA,A,3,25,23,32,06,09,16,,,,,,,1.24,0.73,1.01,4*08
$GPGSV,3,1,11,02,04,107,22,03,11,309,41,12,05,051,29,22,75,276,44,1*62
$GPGSV,3,2,11,25,34,047,40,26,40,252,45,29,50,098,36,31,59,329,40,1*6E
$GPGSV,3,3,11,32,60,175,41,41,18,249,37,50,46,201,37,1*52
$GPGSV,2,1,07,03,11,309,35,12,05,051,16,25,34,047,33,26,40,252,35,6*6D
$GPGSV,2,2,07,29,50,098,31,31,59,329,36,32,60,175,29,6*55
$GLGSV,2,1,07,65,40,202,32,66,51,293,44,67,11,333,44,75,37,038,39,1*73
$GLGSV,2,2,07,76,50,312,46,77,14,270,29,84,10,029,26,1*40
$GLGSV,2,1,08,65,40,202,34,66,51,293,41,67,11,333,35,75,37,038,33,3*71
$GLGSV,2,2,08,76,50,312,41,77,14,270,33,84,10,029,26,85,25,088,29,3*70
$GLGSV,1,1,02,72,00,172,,86,11,132,,0*74
$GAGSV,2,1,06,02,69,283,37,03,60,183,36,07,06,322,32,08,54,299,39,2*7B
$GAGSV,2,2,06,25,49,040,31,30,20,246,30,2*7E
$GAGSV,2,1,07,02,69,283,42,03,60,183,39,07,06,322,37,08,54,299,43,7*7A
$GAGSV,2,2,07,10,05,062,27,25,49,040,42,30,20,246,39,7*42
$GAGSV,1,1,01,12,00,039,,0*4C
$GBGSV,2,1,06,06,58,319,41,09,46,314,42,16,68,329,41,23,42,289,48,1*71
$GBGSV,2,2,06,25,64,019,44,32,29,301,43,1*72
$GBGSV,2,1,05,06,58,319,40,09,46,314,34,12,,,29,16,68,329,36,3*40
$GBGSV,2,2,05,25,64,019,08,3*44
$GNGLL,3548.11281,N,13940.65155,E,060349.00,A,D*76
$GNRMC,060350.00,A,3548.11281,N,13940.65155,E,0.007,,101222,,,R,V*0E
$GNVTG,,T,,M,0.007,N,0.013,K,D*3D
$GNGGA,060350.00,3548.11281,N,13940.65155,E,4,12,0.73,6.0,M,39.2,M,,0000*42
$GNGSA,A,3,03,22,26,25,29,31,32,,,,,,1.24,0.73,1.01,1*0A
$GNGSA,A,3,76,75,67,65,66,77,,,,,,,1.24,0.73,1.01,2*00
$GNGSA,A,3,30,08,03,02,25,,,,,,,,1.24,0.73,1.01,3*0D
$GNGSA,A,3,25,23,32,06,09,16,,,,,,,1.24,0.73,1.01,4*08
$GPGSV,3,1,11,02,04,107,21,03,11,309,41,12,05,051,30,22,75,276,44,1*69
$GPGSV,3,2,11,25,34,047,40,26,40,252,45,29,50,098,36,31,59,329,40,1*6E
$GPGSV,3,3,11,32,60,175,41,41,18,249,36,50,46,201,37,1*53
$GPGSV,2,1,07,03,11,309,35,12,05,051,16,25,34,047,33,26,40,252,35,6*6D
$GPGSV,2,2,07,29,50,098,31,31,59,329,36,32,60,175,29,6*55
$GLGSV,2,1,08,65,40,202,32,66,51,293,44,67,11,333,44,75,37,038,39,1*7C
$GLGSV,2,2,08,76,50,312,46,77,15,270,29,84,10,029,26,85,25,088,23,1*75
$GLGSV,2,1,08,65,40,202,34,66,51,293,41,67,11,333,35,75,37,038,33,3*71
$GLGSV,2,2,08,76,50,312,41,77,15,270,33,84,10,029,27,85,25,088,29,3*70
$GLGSV,1,1,02,72,00,172,,86,11,132,,0*74
$GAGSV,2,1,06,02,69,283,37,03,60,183,36,07,06,322,32,08,54,299,39,2*7B
$GAGSV,2,2,06,25,49,040,31,30,20,246,30,2*7E
$GAGSV,2,1,07,02,69,283,42,03,60,183,39,07,06,322,37,08,54,299,43,7*7A
$GAGSV,2,2,07,10,05,062,27,25,49,040,42,30,20,246,39,7*42
$GAGSV,1,1,01,12,00,039,,0*4C
$GBGSV,2,1,06,06,58,319,41,09,46,314,42,16,68,329,41,23,42,289,47,1*7E
$GBGSV,2,2,06,25,64,019,44,32,29,301,43,1*72
$GBGSV,2,1,05,06,58,319,39,09,46,314,34,12,,,29,16,68,329,36,3*4E
$GBGSV,2,2,05,25,64,019,09,3*45
$GNGLL,3548.11281,N,13940.65155,E,060350.00,A,D*7E
$GNRMC,060351.00,A,3548.11281,N,13940.65155,E,0.016,,101222,,,R,V*0F
$GNVTG,,T,,M,0.016,N,0.030,K,D*3C
$GNGGA,060351.00,3548.11281,N,13940.65155,E,4,12,0.73,6.0,M,39.2,M,,0000*43
$GNGSA,A,3,03,22,26,25,29,31,32,,,,,,1.24,0.73,1.01,1*0A
$GNGSA,A,3,76,75,67,65,66,77,,,,,,,1.24,0.73,1.01,2*00
$GNGSA,A,3,30,08,03,02,25,,,,,,,,1.24,0.73,1.01,3*0D
$GNGSA,A,3,25,23,32,06,09,16,,,,,,,1.24,0.73,1.01,4*08
$GPGSV,3,1,11,02,04,107,22,03,11,309,42,12,05,051,30,22,75,276,43,1*6E
$GPGSV,3,2,11,25,34,047,40,26,40,252,45,29,50,098,36,31,59,329,40,1*6E
$GPGSV,3,3,11,32,60,175,41,41,18,249,37,50,46,201,37,1*52
$GPGSV,2,1,07,03,11,309,35,12,05,051,16,25,34,047,33,26,40,252,35,6*6D
$GPGSV,2,2,07,29,50,098,31,31,59,329,36,32,60,175,29,6*55
$GLGSV,3,1,09,65,40,202,32,66,51,293,44,67,11,333,44,75,37,038,39,1*7C
$GLGSV,3,2,09,76,50,312,46,77,15,270,29,84,10,029,27,85,25,088,24,1*73
$GLGSV,3,3,09,86,11,132,16,1*48
$GLGSV,2,1,08,65,40,202,34,66,51,293,41,67,11,333,35,75,37,038,34,3*76
$GLGSV,2,2,08,76,50,312,41,77,15,270,33,84,10,029,27,85,25,088,29,3*70
$GLGSV,1,1,01,72,00,172,,0*49
$GAGSV,2,1,06,02,69,283,37,03,60,183,36,07,06,322,32,08,54,299,39,2*7B
$GAGSV,2,2,06,25,49,040,31,30,20,246,29,2*76
$GAGSV,2,1,07,02,69,283,42,03,60,183,39,07,06,322,37,08,54,299,43,7*7A
$GAGSV,2,2,07,10,05,062,26,25,49,040,42,30,20,246,39,7*43
$GAGSV,1,1,01,12,00,039,,0*4C
$GBGSV,2,1,06,06,58,319,41,09,46,314,42,16,68,329,42,23,42,289,47,1*7D
$GBGSV,2,2,06,25,64,019,44,32,29,301,43,1*72
$GBGSV,2,1,05,06,58,319,39,09,46,314,34,12,,,30,16,68,329,36,3*46
$GBGSV,2,2,05,25,64,019,09,3*45
$GNGLL,3548.11281,N,13940.65155,E,060351.00,A,D*7F
$GNRMC,060352.00,A,3548.11281,N,13940.65155,E,0.007,,101222,,,R,V*0C
$GNVTG,,T,,M,0.007,N,0.014,K,D*3A
$GNGGA,060352.00,3548.11281,N,13940.65155,E,4,12,0.73,6.0,M,39.2,M,,0000*40
$GNGSA,A,3,03,22,26,25,29,31,32,,,,,,1.24,0.73,1.01,1*0A
$GNGSA,A,3,76,75,67,65,66,77,,,,,,,1.24,0.73,1.01,2*00
$GNGSA,A,3,30,08,03,02,25,,,,,,,,1.24,0.73,1.01,3*0D
$GNGSA,A,3,25,23,32,06,09,16,,,,,,,1.24,0.73,1.01,4*08
$GPGSV,3,1,11,02,04,107,22,03,11,309,42,12,05,051,30,22,75,276,43,1*6E
$GPGSV,3,2,11,25,34,047,40,26,40,252,45,29,50,098,36,31,59,329,40,1*6E
$GPGSV,3,3,11,32,60,175,41,41,18,249,37,50,46,201,36,1*53
$GPGSV,2,1,07,03,11,309,35,12,05,051,17,25,34,047,33,26,40,252,35,6*6C
$GPGSV,2,2,07,29,50,098,31,31,59,329,36,32,60,175,29,6*55
$GLGSV,3,1,09,65,40,202,32,66,51,293,44,67,11,333,45,75,37,038,40,1*73
$GLGSV,3,2,09,76,50,312,46,77,15,270,29,84,10,029,27,85,25,088,23,1*74
$GLGSV,3,3,09,86,11,132,16,1*48
$GLGSV,2,1,08,65,40,202,35,66,51,293,41,67,11,333,35,75,37,038,34,3*77
$GLGSV,2,2,08,76,50,312,41,77,15,270,33,84,10,029,27,85,25,088,29,3*70
$GLGSV,1,1,01,72,00,172,,0*49
$GAGSV,2,1,06,02,69,283,37,03,60,183,36,07,06,322,32,08,54,299,39,2*7B
$GAGSV,2,2,06,25,49,040,31,30,20,246,29,2*76
$GAGSV,2,1,07,02,69,283,42,03,60,183,39,07,06,322,37,08,54,299,43,7*7A
$GAGSV,2,2,07,10,05,062,26,25,49,040,42,30,20,246,39,7*43
$GAGSV,1,1,01,12,00,039,,0*4C
$GBGSV,2,1,06,06,58,319,41,09,46,314,42,16,68,329,42,23,42,289,47,1*7D
$GBGSV,2,2,06,25,64,019,44,32,29,301,43,1*72
$GBGSV,2,1,05,06,58,319,40,09,46,314,34,12,,,30,16,68,329,36,3*48
$GBGSV,2,2,05,25,64,019,08,3*44
$GNGLL,3548.11281,N,13940.65155,E,060352.00,A,D*7C
$GNRMC,060353.00,A,3548.11281,N,13940.65155,E,0.015,,101222,,,R,V*0E
$GNVTG,,T,,M,0.015,N,0.028,K,D*36
$GNGGA,060353.00,3548.11281,N,13940.65155,E,4,12,0.73,6.0,M,39.2,M,,0000*41
$GNGSA,A,3,03,22,26,25,29,31,32,,,,,,1.24,0.73,1.01,1*0A
$GNGSA,A,3,76,75,67,65,66,77,,,,,,,1.24,0.73,1.01,2*00
$GNGSA,A,3,30,08,03,02,25,,,,,,,,1.24,0.73,1.01,3*0D
$GNGSA,A,3,25,23,32,06,09,16,,,,,,,1.24,0.73,1.01,4*08
$GPGSV,3,1,11,02,04,107,22,03,11,309,42,12,05,051,28,22,75,276,43,1*67
$GPGSV,3,2,11,25,34,047,40,26,40,252,45,29,50,098,36,31,59,329,40,1*6E
$GPGSV,3,3,11,32,60,175,41,41,18,249,35,50,46,201,36,1*51
$GPGSV,2,1,07,03,11,309,35,12,05,051,17,25,34,047,33,26,40,252,36,6*6F
$GPGSV,2,2,07,29,50,098,31,31,59,329,36,32,60,175,29,6*55
$GLGSV,3,1,09,65,40,202,31,66,51,293,45,67,11,333,45,75,37,038,40,1*71
$GLGSV,3,2,09,76,50,312,46,77,15,270,28,84,10,029,28,85,25,088,22,1*7B
$GLGSV,3,3,09,86,11,132,16,1*48
$GLGSV,2,1,08,65,40,202,34,66,51,293,41,67,11,333,35,75,37,038,35,3*77
$GLGSV,2,2,08,76,50,312,41,77,15,270,33,84,10,029,27,85,25,088,30,3*78
$GLGSV,1,1,01,72,00,172,,0*49
$GAGSV,2,1,06,02,69,283,37,03,60,183,36,07,06,322,32,08,54,299,39,2*7B
$GAGSV,2,2,06,25,49,040,31,30,20,246,30,2*7E
$GAGSV,2,1,07,02,69,283,41,03,60,183,39,07,06,322,37,08,54,299,43,7*79
$GAGSV,2,2,07,10,05,062,27,25,49,040,42,30,20,246,39,7*42
$GAGSV,1,1,01,12,00,039,,0*4C
$GBGSV,2,1,06,06,58,319,40,09,46,314,41,16,68,329,42,23,42,289,47,1*7F
$GBGSV,2,2,06,25,64,019,44,32,29,301,43,1*72
$GBGSV,2,1,05,06,58,319,39,09,46,314,34,12,,,30,16,68,329,36,3*46
$GBGSV,2,2,05,25,64,019,08,3*44
$GNGLL,3548.11281,N,13940.65155,E,060353.00,A,D*7D
$GNRMC,060354.00,A,3548.11281,N,13940.65155,E,0.007,,101222,,,R,V*0A
$GNVTG,,T,,M,0.007,N,0.013,K,D*3D
$GNGGA,060354.00,3548.11281,N,13940.65155,E,4,12,0.73,6.0,M,39.2,M,,0000*46
$GNGSA,A,3,03,22,26,25,29,31,32,,,,,,1.24,0.73,1.01,1*0A
$GNGSA,A,3,76,75,67,65,66,77,,,,,,,1.24,0.73,1.01,2*00
$GNGSA,A,3,30,08,03,02,25,,,,,,,,1.24,0.73,1.01,3*0D
$GNGSA,A,3,25,23,32,06,09,16,,,,,,,1.24,0.73,1.01,4*08
$GPGSV,3,1,11,02,04,107,23,03,11,309,42,12,05,051,27,22,75,276,43,1*69
$GPGSV,3,2,11,25,34,047,40,26,40,252,45,29,50,098,36,31,59,329,40,1*6E
$GPGSV,3,3,11,32,60,175,40,41,18,249,35,50,46,201,36,1*50
$GPGSV,2,1,07,03,11,309,35,12,05,051,17,25,34,047,33,26,40,252,37,6*6E
$GPGSV,2,2,07,29,50,098,31,31,59,329,36,32,60,175,29,6*55
$GLGSV,3,1,09,65,40,202,32,66,51,293,44,67,11,333,45,75,37,038,40,1*73
$GLGSV,3,2,09,76,50,312,46,77,15,270,28,84,10,029,28,85,25,088,23,1*7A
$GLGSV,3,3,09,86,11,132,15,1*4B
$GLGSV,2,1,08,65,40,202,35,66,51,293,41,67,11,333,35,75,37,038,35,3*76
$GLGSV,2,2,08,76,50,312,41,77,15,270,33,84,10,029,27,85,25,088,31,3*79
$GLGSV,1,1,01,72,00,172,,0*49
$GAGSV,2,1,06,02,69,283,37,03,60,183,36,07,06,322,32,08,54,299,39,2*7B
$GAGSV,2,2,06,25,49,040,32,30,20,246,31,2*7C
$GAGSV,2,1,07,02,69,283,41,03,60,183,39,07,06,322,37,08,54,299,43,7*79
$GAGSV,2,2,07,10,05,062,28,25,49,040,42,30,20,246,40,7*43
$GAGSV,1,1,01,12,00,039,,0*4C
$GBGSV,2,1,06,06,58,319,40,09,46,314,42,16,68,329,41,23,42,289,48,1*70
$GBGSV,2,2,06,25,64,019,44,32,29,301,43,1*72
$GBGSV,2,1,05,06,58,319,39,09,46,314,34,12,,,31,16,68,329,36,3*47
$GBGSV,2,2,05,25,64,019,08,3*44
$GNGLL,3548.11281,N,13940.65155,E,060354.00,A,D*7A
$GNRMC,060355.00,A,3548.11281,N,13940.65155,E,0.008,,101222,,,R,V*04
$GNVTG,,T,,M,0.008,N,0.015,K,D*34
$GNGGA,060355.00,3548.11281,N,13940.65155,E,4,12,0.73,6.0,M,39.2,M,,0000*47
$GNGSA,A,3,03,22,26,25,29,31,32,,,,,,1.24,0.73,1.01,1*0A
$GNGSA,A,3,76,75,67,65,66,77,,,,,,,1.24,0.73,1.01,2*00
$GNGSA,A,3,30,08,03,02,25,,,,,,,,1.24,0.73,1.01,3*0D
$GNGSA,A,3,25,23,32,06,09,16,,,,,,,1.24,0.73,1.01,4*08
$GPGSV,3,1,11,02,04,107,23,03,11,309,42,12,05,051,26,22,75,276,43,1*68
$GPGSV,3,2,11,25,34,047,40,26,40,252,46,29,50,098,36,31,59,329,40,1*6D
$GPGSV,3,3,11,32,60,175,40,41,18,249,36,50,46,201,36,1*53
$GPGSV,2,1,07,03,11,309,36,12,05,051,18,25,34,047,34,26,40,252,37,6*65
$GPGSV,2,2,07,29,50,098,32,31,59,329,37,32,60,175,33,6*5C
$GLGSV,3,1,09,65,40,202,32,66,51,293,45,67,11,333,45,75,37,038,40,1*72
$GLGSV,3,2,09,76,50,312,45,77,15,270,28,84,10,029,27,85,25,088,24,1*71
$GLGSV,3,3,09,86,11,132,14,1*4A
$GLGSV,2,1,08,65,40,202,34,66,51,293,41,67,11,333,36,75,37,038,35,3*74
$GLGSV,2,2,08,76,50,312,41,77,15,270,33,84,10,029,27,85,25,088,30,3*78
$GLGSV,1,1,01,72,00,172,,0*49
$GAGSV,2,1,06,02,69,283,37,03,60,183,37,07,06,322,32,08,54,299,39,2*7A
$GAGSV,2,2,06,25,49,040,31,30,20,246,30,2*7E
$GAGSV,2,1,07,02,69,283,41,03,60,183,37,07,06,322,37,08,54,299,43,7*77
$GAGSV,2,2,07,10,05,062,27,25,49,040,42,30,20,246,41,7*4D
$GAGSV,1,1,01,12,00,039,,0*4C
$GBGSV,2,1,06,06,58,319,40,09,46,314,42,16,68,329,41,23,42,289,47,1*7F
$GBGSV,2,2,06,25,64,019,43,32,29,301,42,1*74
$GBGSV,1,1,04,06,58,319,39,09,46,314,34,12,,,31,16,68,329,36,3*45
$GNGLL,3548.11281,N,13940.65155,E,060355.00,A,D*7B
$GNRMC,060356.00,A,3548.11281,N,13940.65155,E,0.030,,101222,,,R,V*0C
$GNVTG,,T,,M,0.030,N,0.056,K,D*38
$GNGGA,060356.00,3548.11281,N,13940.65155,E,4,12,0.73,6.0,M,39.2,M,,0000*44
$GNGSA,A,3,03,22,26,25,29,31,32,,,,,,1.24,0.73,1.01,1*0A
$GNGSA,A,3,76,75,67,65,66,77,,,,,,,1.24,0.73,1.01,2*00
$GNGSA,A,3,30,08,03,02,25,,,,,,,,1.24,0.73,1.01,3*0D
$GNGSA,A,3,25,23,32,06,09,16,,,,,,,1.24,0.73,1.01,4*08
$GPGSV,3,1,11,02,04,107,24,03,11,309,42,12,05,051,28,22,75,276,43,1*61
$GPGSV,3,2,11,25,34,047,40,26,40,252,45,29,50,098,34,31,59,329,39,1*62
$GPGSV,3,3,11,32,60,175,39,41,18,249,29,50,46,201,33,1*56
$GPGSV,2,1,07,03,11,309,36,12,05,051,18,25,34,047,34,26,40,252,39,6*6B
$GPGSV,2,2,07,29,50,098,33,31,59,329,37,32,60,175,32,6*5C
$GLGSV,3,1,09,65,40,202,33,66,51,293,44,67,11,333,45,75,37,038,40,1*72
$GLGSV,3,2,09,76,50,312,46,77,15,270,28,84,10,029,28,85,25,088,25,1*7C
$GLGSV,3,3,09,86,11,132,11,1*4F
$GLGSV,2,1,08,65,40,202,31,66,51,293,41,67,11,333,36,75,37,038,35,3*71
$GLGSV,2,2,08,76,50,312,41,77,15,270,32,84,10,029,27,85,25,088,30,3*79
$GLGSV,1,1,01,72,00,172,,0*49
$GAGSV,2,1,06,02,69,283,36,03,60,183,36,07,06,322,32,08,54,299,39,2*7A
$GAGSV,2,2,06,25,49,040,32,30,20,246,34,2*79
$GAGSV,2,1,07,02,69,283,42,03,60,183,39,07,06,322,37,08,54,299,43,7*7A
$GAGSV,2,2,07,10,05,062,31,25,49,040,42,30,20,246,42,7*49
$GAGSV,1,1,01,12,00,039,,0*4C
$GBGSV,2,1,06,06,58,319,40,09,46,314,42,16,68,329,41,23,42,289,47,1*7F
$GBGSV,2,2,06,25,64,019,44,32,29,301,43,1*72
$GBGSV,1,1,04,06,58,319,39,09,46,314,33,12,,,31,16,68,329,36,3*42
$GNGLL,3548.11281,N,13940.65155,E,060356.00,A,D*78
$GNRMC,060357.00,A,3548.11281,N,13940.65155,E,0.040,,101222,,,R,V*0A
$GNVTG,,T,,M,0.040,N,0.075,K,D*3E
$GNGGA,060357.00,3548.11281,N,13940.65155,E,4,12,0.73,6.0,M,39.2,M,,0000*45
$GNGSA,A,3,03,22,26,25,29,31,32,,,,,,1.24,0.73,1.01,1*0A
$GNGSA,A,3,76,75,67,65,66,77,,,,,,,1.24,0.73,1.01,2*00
$GNGSA,A,3,30,08,03,02,25,,,,,,,,1.24,0.73,1.01,3*0D
$GNGSA,A,3,25,23,32,06,09,16,,,,,,,1.24,0.73,1.01,4*08
$GPGSV,3,1,11,02,04,107,25,03,11,309,42,12,05,051,30,22,75,276,43,1*69
$GPGSV,3,2,11,25,34,047,40,26,40,252,46,29,50,098,36,31,59,329,39,1*63
$GPGSV,3,3,11,32,60,175,39,41,18,249,34,50,46,201,34,1*5D
$GPGSV,2,1,07,03,11,309,37,12,05,051,18,25,34,047,34,26,40,252,39,6*6A
$GPGSV,2,2,07,29,50,098,34,31,59,329,37,32,60,175,30,6*59
$GLGSV,3,1,09,65,40,202,29,66,51,293,45,67,11,333,45,75,37,038,40,1*78
$GLGSV,3,2,09,76,50,312,46,77,15,270,28,84,10,029,28,85,25,087,25,1*73
$GLGSV,3,3,09,86,11,132,14,1*4A
$GLGSV,2,1,08,65,40,202,30,66,51,293,40,67,11,333,35,75,37,038,35,3*72
$GLGSV,2,2,08,76,50,312,41,77,15,270,31,84,10,029,27,85,25,087,30,3*75
$GLGSV,1,1,01,72,00,172,,0*49
$GAGSV,2,1,06,02,69,283,37,03,60,183,34,07,06,322,32,08,54,299,39,2*79
$GAGSV,2,2,06,25,49,040,31,30,20,246,34,2*7A
$GAGSV,2,1,07,02,69,283,42,03,60,183,38,07,06,322,37,08,54,299,43,7*7B
$GAGSV,2,2,07,10,05,062,30,25,49,040,42,30,20,246,43,7*49
$GAGSV,1,1,01,12,00,039,,0*4C
$GBGSV,2,1,06,06,58,319,40,09,46,314,42,16,68,329,41,23,42,289,48,1*70
$GBGSV,2,2,06,25,64,019,44,32,29,301,43,1*72
$GBGSV,1,1,04,06,58,319,40,09,46,314,33,12,,,31,16,68,329,36,3*4C
$GNGLL,3548.11281,N,13940.65155,E,060357.00,A,D*79
$GNRMC,060358.00,A,3548.11281,N,13940.65155,E,0.025,,101222,,,R,V*06
$GNVTG,,T,,M,0.025,N,0.047,K,D*3C
$GNGGA,060358.00,3548.11281,N,13940.65155,E,4,12,0.73,6.0,M,39.2,M,,0000*4A
$GNGSA,A,3,03,22,26,25,29,31,32,,,,,,1.24,0.73,1.01,1*0A
$GNGSA,A,3,76,75,67,65,66,77,,,,,,,1.24,0.73,1.01,2*00
$GNGSA,A,3,30,08,03,02,25,,,,,,,,1.24,0.73,1.01,3*0D
$GNGSA,A,3,25,23,32,06,09,16,,,,,,,1.24,0.73,1.01,4*08
$GPGSV,3,1,11,02,04,107,25,03,11,309,42,12,05,051,31,22,75,276,43,1*68
$GPGSV,3,2,11,25,34,047,40,26,40,252,46,29,50,098,36,31,59,329,40,1*6D
$GPGSV,3,3,11,32,60,175,39,41,18,249,34,50,46,201,35,1*5C
$GPGSV,2,1,07,03,11,309,36,12,05,051,18,25,34,047,34,26,40,252,38,6*6A
$GPGSV,2,2,07,29,50,098,33,31,59,329,36,32,60,175,29,6*57
$GLGSV,3,1,09,65,40,202,30,66,51,293,45,67,11,333,45,75,37,038,39,1*7E
$GLGSV,3,2,09,76,50,312,46,77,15,270,28,84,10,029,28,85,25,087,29,1*7F
$GLGSV,3,3,09,86,12,132,13,1*4E
$GLGSV,2,1,08,65,40,202,31,66,51,293,40,67,11,333,36,75,37,038,34,3*71
$GLGSV,2,2,08,76,50,312,41,77,15,270,31,84,10,029,27,85,25,087,29,3*7D
$GLGSV,1,1,01,72,00,172,,0*49
$GAGSV,2,1,06,02,69,283,38,03,60,183,34,07,06,322,31,08,54,299,38,2*74
$GAGSV,2,2,06,25,49,040,30,30,20,246,33,2*7C
$GAGSV,2,1,07,02,69,283,42,03,60,183,38,07,06,322,37,08,54,299,43,7*7B
$GAGSV,2,2,07,10,05,062,31,25,49,040,42,30,20,246,43,7*48
$GAGSV,1,1,01,12,00,039,,0*4C
$GBGSV,2,1,06,06,58,319,40,09,46,314,42,16,68,329,41,23,42,289,48,1*70
$GBGSV,2,2,06,25,64,019,43,32,29,301,43,1*75
$GBGSV,1,1,04,06,58,319,40,09,46,314,33,12,,,32,16,68,329,37,3*4E
$GNGLL,3548.11281,N,13940.65155,E,060358.00,A,D*76
$GNRMC,060359.00,A,3548.11281,N,13940.65155,E,0.034,,101222,,,R,V*07
$GNVTG,,T,,M,0.034,N,0.064,K,D*3D
$GNGGA,060359.00,3548.11281,N,13940.65155,E,4,12,0.73,6.0,M,39.2,M,,0000*4B
$GNGSA,A,3,03,22,26,25,29,31,32,,,,,,1.24,0.73,1.01,1*0A
$GNGSA,A,3,76,75,67,65,66,77,,,,,,,1.24,0.73,1.01,2*00
$GNGSA,A,3,30,08,03,02,25,,,,,,,,1.24,0.73,1.01,3*0D
$GNGSA,A,3,25,23,32,06,09,16,,,,,,,1.24,0.73,1.01,4*08
$GPGSV,3,1,11,02,04,107,25,03,11,309,42,12,05,051,31,22,75,276,43,1*68
$GPGSV,3,2,11,25,34,047,40,26,40,252,46,29,50,098,36,31,59,329,39,1*63
$GPGSV,3,3,11,32,60,175,40,41,18,249,34,50,46,201,35,1*52
$GPGSV,2,1,07,03,11,309,36,12,05,051,19,25,34,047,33,26,40,252,38,6*6C
$GPGSV,2,2,07,29,50,098,33,31,59,329,36,32,60,175,29,6*57
$GLGSV,3,1,09,65,40,202,30,66,51,293,44,67,11,333,45,75,37,038,40,1*71
$GLGSV,3,2,09,76,50,312,46,77,15,270,29,84,10,029,27,85,25,087,30,1*79
$GLGSV,3,3,09,86,12,132,13,1*4E
$GLGSV,2,1,08,65,40,202,31,66,51,293,41,67,11,333,36,75,37,038,35,3*71
$GLGSV,2,2,08,76,50,312,41,77,15,270,30,84,10,029,27,85,25,087,29,3*7C
$GLGSV,1,1,01,72,00,172,,0*49
$GAGSV,2,1,06,02,69,283,37,03,60,183,34,07,06,322,31,08,54,299,38,2*7B
$GAGSV,2,2,06,25,49,040,29,30,20,246,34,2*73
$GAGSV,2,1,07,02,69,283,42,03,60,183,38,07,06,322,37,08,54,299,43,7*7B
$GAGSV,2,2,07,10,05,062,31,25,49,040,42,30,20,246,43,7*48
$GAGSV,1,1,01,12,00,039,,0*4C
$GBGSV,2,1,06,06,58,319,41,09,46,314,42,16,68,329,42,23,42,289,48,1*72
$GBGSV,2,2,06,25,64,019,42,32,29,301,43,1*74
$GBGSV,1,1,04,06,58,319,40,09,46,314,33,12,,,31,16,68,329,37,3*4D
$GNGLL,3548.11281,N,13940.65155,E,060359.00,A,D*77
$GNRMC,060400.00,A,3548.11281,N,13940.65155,E,0.005,,101222,,,R,V*0E
$GNVTG,,T,,M,0.005,N,0.009,K,D*34
$GNGGA,060400.00,3548.11281,N,13940.65155,E,4,12,0.73,6.0,M,39.2,M,,0000*40
$GNGSA,A,3,03,22,26,25,29,31,32,,,,,,1.24,0.73,1.01,1*0A
$GNGSA,A,3,76,75,67,65,66,77,,,,,,,1.24,0.73,1.01,2*00
$GNGSA,A,3,30,08,03,02,25,,,,,,,,1.24,0.73,1.01,3*0D
$GNGSA,A,3,25,23,32,06,09,16,,,,,,,1.24,0.73,1.01,4*08
$GPGSV,3,1,11,02,04,107,25,03,11,309,42,12,05,051,32,22,75,276,43,1*6B
$GPGSV,3,2,11,25,34,047,40,26,40,252,46,29,50,098,37,31,59,329,38,1*63
$GPGSV,3,3,11,32,60,175,40,41,18,249,33,50,46,201,35,1*55
$GPGSV,2,1,07,03,11,309,36,12,05,051,19,25,34,047,33,26,40,252,38,6*6C
$GPGSV,2,2,07,29,50,098,33,31,59,329,36,32,60,175,29,6*57
$GLGSV,3,1,09,65,40,202,30,66,51,293,44,67,11,333,45,75,37,038,39,1*7F
$GLGSV,3,2,09,76,50,312,46,77,15,270,29,84,10,029,27,85,25,087,29,1*71
$GLGSV,3,3,09,86,12,132,16,1*4B
$GLGSV,2,1,08,65,40,202,31,66,51,293,41,67,11,333,35,75,37,038,35,3*72
$GLGSV,2,2,08,76,50,312,41,77,15,270,30,84,10,029,27,85,25,087,28,3*7D
$GLGSV,1,1,01,72,00,172,,0*49
$GAGSV,2,1,06,02,69,283,37,03,60,183,34,07,06,322,31,08,54,299,39,2*7A
$GAGSV,2,2,06,25,49,040,29,30,20,246,34,2*73
$GAGSV,2,1,07,02,69,283,42,03,60,183,38,07,06,322,38,08,54,299,43,7*74
$GAGSV,2,2,07,10,05,062,32,25,49,040,42,30,20,246,43,7*4B
$GAGSV,1,1,01,12,00,039,,0*4C
$GBGSV,2,1,06,06,58,319,41,09,46,314,42,16,68,329,42,23,42,289,47,1*7D
$GBGSV,2,2,06,25,64,019,43,32,29,301,43,1*75
$GBGSV,2,1,05,06,58,319,40,09,46,314,33,12,,,31,16,68,329,37,3*4F
$GBGSV,2,2,05,23,42,289,17,3*43
$GNGLL,3548.11281,N,13940.65155,E,060400.00,A,D*7C
$GNRMC,060401.00,A,3548.11281,N,13940.65155,E,0.005,,101222,,,R,V*0F
$GNVTG,,T,,M,0.005,N,0.010,K,D*3C
$GNGGA,060401.00,3548.11281,N,13940.65155,E,4,12,0.73,6.0,M,39.2,M,,0000*41
$GNGSA,A,3,03,22,26,25,29,31,32,,,,,,1.24,0.73,1.01,1*0A
$GNGSA,A,3,76,75,67,65,66,77,,,,,,,1.24,0.73,1.01,2*00
$GNGSA,A,3,30,08,03,02,25,,,,,,,,1.24,0.73,1.01,3*0D
$GNGSA,A,3,25,23,32,06,09,16,,,,,,,1.24,0.73,1.01,4*08
$GPGSV,3,1,11,02,04,107,24,03,11,309,42,12,05,051,32,22,75,276,43,1*6A
$GPGSV,3,2,11,25,34,047,40,26,40,252,46,29,50,098,36,31,59,329,38,1*62
$GPGSV,3,3,11,32,60,175,40,41,18,249,33,50,46,201,36,1*56
$GPGSV,2,1,07,03,11,309,35,12,05,051,20,25,34,047,33,26,40,252,38,6*65
$GPGSV,2,2,07,29,50,098,33,31,59,329,36,32,60,175,29,6*57
$GLGSV,3,1,09,65,40,202,30,66,51,293,44,67,11,333,45,75,37,038,39,1*7F
$GLGSV,3,2,09,76,50,312,46,77,15,270,29,84,10,029,27,85,25,087,29,1*71
$GLGSV,3,3,09,86,12,132,17,1*4A
$GLGSV,2,1,08,65,40,202,31,66,51,293,41,67,11,333,35,75,37,038,35,3*72
$GLGSV,2,2,08,76,50,312,40,77,15,270,31,84,10,029,27,85,25,087,28,3*7D
$GLGSV,1,1,01,72,00,172,,0*49
$GAGSV,2,1,06,02,69,283,37,03,60,183,33,07,06,322,31,08,54,299,39,2*7D
$GAGSV,2,2,06,25,49,040,29,30,20,246,34,2*73
$GAGSV,2,1,07,02,69,283,42,03,60,183,38,07,06,322,38,08,54,299,43,7*74
$GAGSV,2,2,07,10,05,062,32,25,49,040,42,30,20,246,42,7*4A
$GAGSV,1,1,01,12,00,039,,0*4C
$GBGSV,2,1,06,06,58,319,41,09,46,314,42,16,68,329,42,23,42,289,47,1*7D
$GBGSV,2,2,06,25,64,019,43,32,29,301,43,1*75
$GBGSV,2,1,05,06,58,319,39,09,46,314,33,12,,,32,16,68,329,37,3*42
$GBGSV,2,2,05,23,42,289,15,3*41
$GNGLL,3548.11281,N,13940.65155,E,060401.00,A,D*7D
$GNRMC,060402.00,A,3548.11281,N,13940.65155,E,0.022,,101222,,,R,V*09
$GNVTG,,T,,M,0.022,N,0.041,K,D*3D
$GNGGA,060402.00,3548.11281,N,13940.65155,E,4,12,0.73,6.0,M,39.2,M,,0000*42
$GNGSA,A,3,03,22,26,25,29,31,32,,,,,,1.24,0.73,1.01,1*0A
$GNGSA,A,3,76,75,67,65,66,77,,,,,,,1.24,0.73,1.01,2*00
$GNGSA,A,3,30,08,03,02,25,,,,,,,,1.24,0.73,1.01,3*0D
$GNGSA,A,3,25,23,32,06,09,16,,,,,,,1.24,0.73,1.01,4*08
$GPGSV,3,1,11,02,05,107,24,03,11,309,42,12,05,051,32,22,75,276,43,1*6B
$GPGSV,3,2,11,25,34,047,40,26,40,252,46,29,50,098,37,31,59,329,38,1*63
$GPGSV,3,3,11,32,60,175,40,41,18,249,33,50,46,201,36,1*56
$GPGSV,2,1,07,03,11,309,35,12,05,051,19,25,34,047,33,26,40,252,38,6*6F
$GPGSV,2,2,07,29,50,098,33,31,59,329,36,32,60,175,29,6*57
$GLGSV,3,1,09,65,40,202,31,66,51,293,44,67,11,333,45,75,37,038,39,1*7E
$GLGSV,3,2,09,76,50,312,46,77,15,270,29,84,10,029,27,85,25,087,28,1*70
$GLGSV,3,3,09,86,12,132,18,1*45
$GLGSV,2,1,08,65,40,202,31,66,51,293,41,67,11,333,35,75,37,038,35,3*72
$GLGSV,2,2,08,76,50,312,40,77,15,270,31,84,10,029,27,85,25,087,28,3*7D
$GLGSV,1,1,01,72,00,172,,0*49
$GAGSV,2,1,06,02,69,283,37,03,60,183,33,07,06,322,31,08,54,299,39,2*7D
$GAGSV,2,2,06,25,49,040,29,30,20,246,34,2*73
$GAGSV,2,1,07,02,69,283,42,03,60,183,38,07,06,322,38,08,54,299,43,7*74
$GAGSV,2,2,07,10,05,062,32,25,49,040,42,30,20,246,42,7*4A
$GAGSV,1,1,01,12,00,039,,0*4C
$GBGSV,2,1,06,06,58,319,41,09,46,314,42,16,68,329,42,23,42,289,47,1*7D
